,City,Cloudiness,Country,Date,Humidity,Lat,Lng,Max Temp,Wind Speed
0,Katangli,0,RU,1600017124,91,51.71,143.23,48.22,6.69
1,Punta Arenas,40,CL,1600016984,61,-53.15,-70.92,46.4,16.11
2,Conceição do Araguaia,69,BR,1600017124,12,-8.26,-49.26,106.86,4.07
3,Albany,58,US,1600017096,64,42.6,-73.97,73.99,1.01
4,Bluff,100,NZ,1600017036,98,-46.6,168.33,46.99,5.99
5,Ilulissat,5,GL,1600016366,46,69.22,-51.1,30.2,11.41
6,West Wendover,1,US,1600017125,23,40.74,-114.07,62.6,3.36
7,Kapaa,90,US,1600017125,78,22.08,-159.32,78.8,8.05
8,Cape Town,75,ZA,1600017125,82,-33.93,18.42,55.99,18.34
9,Biak,95,ID,1600017051,76,-0.91,122.88,75.38,6.89
10,Port Blair,89,IN,1600017125,79,11.67,92.75,82.36,13.13
11,Bambous Virieux,40,MU,1600016698,78,-20.34,57.76,71.6,6.93
12,Gijang,75,KR,1600017126,82,35.24,129.21,68.0,1.12
13,Aklavik,75,CA,1600017108,76,68.22,-135.01,32.0,3.36
14,Misratah,19,LY,1600017054,74,32.38,15.09,80.82,13.94
15,Laas,5,IT,1600017126,68,46.62,10.7,73.0,4.7
16,Kāmākhyānagar,92,IN,1600017127,90,20.93,85.55,79.47,4.09
17,Eastlake,90,US,1600017127,68,41.65,-81.45,73.99,14.99
18,Laguna,90,US,1600016612,77,38.42,-121.42,66.99,3.24
19,San Cristobal,40,VE,1600017127,49,7.77,-72.22,89.6,12.75
20,Levice,61,SK,1600017128,59,48.22,18.61,80.01,6.38
21,Innisfail,83,AU,1600017128,88,-17.53,146.03,69.12,10.87
22,Busselton,96,AU,1600017128,68,-33.65,115.33,57.0,9.78
23,Faya,20,SA,1600017128,60,18.39,42.45,77.0,5.82
24,Esperance,0,AU,1600017063,100,-33.87,121.9,51.8,8.05
25,Husavik,75,IS,1600016971,81,66.04,-17.34,44.6,9.17
26,Suicheng,57,CN,1600017129,95,33.9,117.93,66.78,4.72
27,Khatanga,8,RU,1600016984,76,71.97,102.5,48.4,5.59
28,Hermanus,67,ZA,1600016976,83,-34.42,19.23,54.0,5.99
29,Dikson,99,RU,1600017129,89,73.51,80.55,47.44,15.79
30,Cherskiy,0,RU,1600017129,80,68.75,161.3,40.15,6.6
31,Ushuaia,75,AR,1600016958,75,-54.8,-68.3,42.8,14.99
32,Mataura,91,NZ,1600017130,98,-46.19,168.86,46.99,5.99
33,Cidreira,28,BR,1600017069,82,-30.18,-50.21,69.26,8.19
34,Ponta do Sol,40,PT,1600017130,88,32.67,-17.1,73.4,13.87
35,Khandyga,81,RU,1600017130,63,62.67,135.6,52.84,5.26
36,Vestmannaeyjar,20,IS,1600016585,87,63.44,-20.27,50.0,18.34
37,Upernavik,99,GL,1600016784,97,72.79,-56.15,31.06,10.0
38,Tsimmerbude,20,RU,1600017131,77,54.67,20.13,60.8,11.18
39,Castro,0,BR,1600017131,30,-24.79,-50.01,85.39,9.28
40,Ambilobe,39,MG,1600017131,73,-13.2,49.05,74.3,4.54
41,Saskylakh,99,RU,1600017132,76,71.92,114.08,46.85,3.04
42,Wanaka,100,NZ,1600017132,81,-44.7,169.15,45.73,7.45
43,Port Alfred,44,ZA,1600017132,62,-33.59,26.89,62.02,13.85
44,Pisco,1,PE,1600017132,72,-13.7,-76.22,66.2,10.29
45,Sitka,1,US,1600016643,70,57.05,-135.33,48.2,4.27
46,Praia da Vitória,20,PT,1600017133,78,38.73,-27.07,78.01,10.8
47,Tuatapere,100,NZ,1600017133,98,-46.13,167.68,46.99,5.99
48,Kahului,1,US,1600017006,77,20.89,-156.47,73.99,3.36
49,Buenos Aires,40,AR,1600016962,82,-34.61,-58.38,64.99,9.17
50,Beringovskiy,100,RU,1600017134,97,63.05,179.32,48.58,12.68
51,Boa Vista,20,BR,1600017134,44,2.82,-60.67,93.2,8.05
52,Ancud,16,CL,1600017134,60,-41.87,-73.82,49.87,6.04
53,Leshan,100,CN,1600017134,91,29.56,103.76,67.06,2.19
54,Novorzhev,36,RU,1600017135,71,57.03,29.33,52.56,8.03
55,Kamyshin,0,RU,1600017135,42,50.1,45.42,59.72,4.7
56,Kimbe,74,PG,1600017135,85,-5.55,150.14,76.23,5.86
57,Leer,100,SS,1600016754,98,8.3,30.14,70.68,2.86
58,Puerto Ayora,40,EC,1600017135,64,-0.74,-90.35,73.4,18.34
59,San Patricio,75,MX,1600016690,75,19.22,-104.7,89.6,6.93
60,Bathsheba,20,BB,1600016711,70,13.22,-59.52,89.6,11.41
61,Carnarvon,0,AU,1600017136,93,-24.87,113.63,66.2,12.75
62,Xinmin,0,CN,1600017137,93,41.99,122.83,60.8,2.24
63,Vaini,75,TO,1600017137,72,-21.2,-175.2,68.0,11.41
64,East London,75,ZA,1600016709,72,-33.02,27.91,60.8,19.46
65,Faanui,40,PF,1600016632,78,-16.48,-151.75,77.86,11.18
66,Barrow,90,US,1600017137,93,71.29,-156.79,39.2,17.22
67,Turka,87,UA,1600017138,90,49.15,23.03,69.01,5.01
68,Ostrovnoy,98,RU,1600017093,93,68.05,39.51,47.01,6.24
69,Comodoro Rivadavia,20,AR,1600017138,33,-45.87,-67.5,57.2,11.41
70,Pochutla,90,MX,1600017138,70,15.74,-96.47,90.0,4.54
71,Plettenberg Bay,17,ZA,1600017138,65,-34.05,23.37,58.1,6.4
72,Marystown,100,CA,1600017139,100,47.17,-55.15,62.01,9.89
73,Ribeira Grande,75,PT,1600017139,78,38.52,-28.7,75.2,13.87
74,Gucheng,99,CN,1600017139,58,35.91,111.32,71.19,3.65
75,Meulaboh,95,ID,1600017139,85,4.14,96.13,78.12,2.73
76,Bredasdorp,24,ZA,1600017140,58,-34.53,20.04,57.2,18.34
77,Airai,72,TL,1600017140,77,-8.93,125.41,53.94,2.93
78,Clarksburg,90,US,1600017140,69,39.28,-80.34,77.0,8.05
79,Conde,75,BR,1600017140,58,-7.26,-34.91,84.2,16.11
80,Jalingo,73,NG,1600017140,87,8.88,11.37,78.42,3.42
81,Rikitea,22,PF,1600016978,81,-23.12,-134.97,72.64,11.79
82,Tazmalt,40,DZ,1600017141,74,36.39,4.4,78.8,4.7
83,Agadez,0,NE,1600016957,9,19.75,10.25,100.65,8.48
84,Atuona,37,PF,1600017141,77,-9.8,-139.03,78.1,15.5
85,Lebu,0,CL,1600017142,64,-37.62,-73.65,53.2,14.5
86,Mar del Plata,4,AR,1600017142,39,-38.0,-57.56,62.6,6.93
87,Tessalit,33,ML,1600017142,9,20.2,1.01,105.64,16.93
88,São João da Barra,0,BR,1600016561,54,-21.64,-41.05,82.4,20.8
89,Kailua,20,US,1600016681,69,21.4,-157.74,77.0,9.17
90,Susanville,1,US,1600017143,25,40.42,-120.65,66.99,2.46
91,Teguise,20,ES,1600017143,83,29.06,-13.56,75.2,5.82
92,Khiri Mat,100,TH,1600017143,79,16.83,99.8,80.28,2.06
93,Port Lincoln,1,AU,1600017049,90,-34.73,135.87,53.08,7.23
94,Prince Rupert,75,CA,1600017144,93,54.32,-130.32,53.6,2.35
95,New Norfolk,39,AU,1600017144,77,-42.78,147.06,46.0,3.0
96,Tasiilaq,79,GL,1600017144,60,65.61,-37.64,39.2,3.36
97,Butaritari,57,KI,1600017144,71,3.07,172.79,82.67,14.32
98,Sibolga,100,ID,1600017144,75,1.74,98.78,77.99,1.74
99,San Donà di Piave,0,IT,1600017145,54,45.63,12.57,84.0,3.36
100,Kloulklubed,75,PW,1600017145,94,7.04,134.26,77.0,11.63
101,Ukiah,75,US,1600017145,62,39.15,-123.21,75.0,2.59
102,Taoudenni,52,ML,1600017145,8,22.68,-3.98,112.71,9.98
103,Tiksi,28,RU,1600017146,85,71.69,128.87,40.51,1.25
104,Vila Franca do Campo,20,PT,1600016651,73,37.72,-25.43,73.4,14.99
105,Rocha,97,UY,1600017146,83,-34.48,-54.33,60.62,6.8
106,Rørvik,75,NO,1600017146,71,64.86,11.24,51.8,20.8
107,Mizdah,85,LY,1600017146,43,31.45,12.98,80.82,16.04
108,Galveston,20,US,1600017046,70,29.37,-94.97,87.8,13.87
109,Fort Nelson,75,CA,1600016684,86,58.81,-122.7,39.2,8.05
110,George Town,20,MY,1600016979,83,5.41,100.34,80.6,2.98
111,Saint Paul Harbor,1,US,1600016737,80,57.79,-152.41,39.2,6.93
112,Kavieng,16,PG,1600017147,77,-2.57,150.8,82.74,12.59
113,Tena,40,EC,1600017147,61,-0.98,-77.82,78.8,4.7
114,Gachsaran,34,IR,1600017148,26,30.36,50.8,91.4,1.19
115,Soverato Marina,97,IT,1600017148,74,38.69,16.55,82.4,5.82
116,Port-Gentil,40,GA,1600016948,74,-0.72,8.78,80.6,16.15
117,Yellowknife,75,CA,1600016932,69,62.46,-114.35,35.6,12.75
118,Los Llanos de Aridane,20,ES,1600017148,69,28.66,-17.92,78.8,4.7
119,Bethel,90,US,1600017149,68,41.37,-73.41,73.0,9.17
120,Havøysund,75,NO,1600016909,81,71.0,24.66,50.0,8.05
121,Katsuura,75,JP,1600017149,94,35.13,140.3,71.6,9.17
122,Hilo,71,US,1600016986,84,19.73,-155.09,71.01,3.0
123,Muisne,75,EC,1600017149,78,0.6,-80.03,82.4,4.7
124,Hoquiam,90,US,1600017149,100,46.98,-123.89,57.0,6.93
125,Yulara,0,AU,1600017150,46,-25.24,130.99,69.8,14.99
126,Berdigestyakh,100,RU,1600017150,90,62.1,126.7,49.28,9.01
127,Saint George,1,US,1600016973,15,37.1,-113.58,82.99,3.36
128,Parvatsar,0,IN,1600016687,37,26.88,74.77,86.81,6.04
129,Torbay,90,CA,1600017150,51,47.67,-52.73,62.01,11.41
130,Talnakh,40,RU,1600017000,82,69.49,88.4,55.4,15.66
131,Petropavlovsk-Kamchatskiy,1,RU,1600016635,86,53.05,158.65,39.2,13.42
132,Kaitangata,83,NZ,1600016860,93,-46.28,169.85,48.99,1.01
133,Shingū,50,JP,1600016758,83,33.73,135.98,70.52,5.86
134,Avarua,94,CK,1600017105,78,-21.21,-159.78,73.4,9.17
135,Tuktoyaktuk,90,CA,1600017151,84,69.45,-133.04,35.6,14.99
136,Moshi,20,TZ,1600016951,42,-3.35,37.33,80.6,5.82
137,Den Helder,19,NL,1600016963,77,52.96,4.76,66.2,13.87
138,Karwar,100,IN,1600017152,85,14.8,74.13,78.35,6.46
139,Geraldton,0,AU,1600017152,87,-28.77,114.6,53.6,9.17
140,Atherton,0,GB,1600017152,51,53.52,-2.49,75.99,3.0
141,Katherine,75,AU,1600017153,38,-14.47,132.27,75.2,2.24
142,Amahai,100,ID,1600017153,85,-3.33,128.92,77.11,7.11
143,Mehamn,90,NO,1600017119,93,71.04,27.85,48.2,3.36
144,Hobart,40,AU,1600017022,61,-42.88,147.33,46.4,13.87
145,Qaanaaq,54,GL,1600017153,81,77.48,-69.36,24.24,8.59
146,Constitución,0,CL,1600017154,47,-35.33,-72.42,60.4,14.54
147,Rome,90,US,1600016884,72,43.21,-75.46,66.2,4.7
148,Kumul,100,CN,1600017154,20,42.8,93.45,68.09,4.07
149,Salinópolis,91,BR,1600017154,75,-0.61,-47.36,83.1,12.93
150,Lompoc,90,US,1600016854,100,34.64,-120.46,53.6,8.72
151,Tual,57,ID,1600016916,80,-5.67,132.75,78.6,20.04
152,Thompson,75,CA,1600017155,75,55.74,-97.86,42.8,8.05
153,Camacha,40,PT,1600017155,73,33.08,-16.33,77.0,14.99
154,Elko,1,US,1600017155,27,41.0,-115.5,70.0,3.36
155,Gigmoto,61,PH,1600017156,78,13.78,124.39,81.05,4.34
156,Rudnogorsk,100,RU,1600017156,86,57.26,103.75,46.36,8.32
157,Kalawit,99,PH,1600017156,83,8.07,122.52,78.93,1.54
158,Mount Gambier,90,AU,1600016699,93,-37.83,140.77,51.8,5.82
159,Riviere-au-Renard,75,CA,1600017156,59,49.0,-64.4,62.6,9.17
160,Amapá,6,BR,1600016665,34,1.0,-52.0,97.45,4.5
161,Jamestown,90,US,1600017157,93,42.1,-79.24,66.0,6.93
162,Chicama,13,PE,1600017157,53,-7.84,-79.15,73.71,11.32
163,Ust'-Koksa,9,RU,1600017157,70,50.27,85.61,39.63,0.67
164,Leningradskiy,67,RU,1600017157,85,69.38,178.42,38.07,2.59
165,Zhigansk,77,RU,1600017158,91,66.77,123.37,45.03,14.92
166,Longyearbyen,75,SJ,1600017158,90,78.22,15.64,39.2,18.34
167,Tshikapa,5,CD,1600017158,29,-6.42,20.8,86.95,1.99
168,Victor Harbor,1,AU,1600017158,90,-35.57,138.62,52.0,8.68
169,Saint-Philippe,43,RE,1600017159,73,-21.36,55.77,69.8,10.29
170,Lagoa,4,PT,1600017063,80,39.05,-27.98,72.21,18.25
171,Richards Bay,0,ZA,1600017023,69,-28.78,32.04,73.15,17.52
172,Taltal,23,CL,1600017159,60,-25.4,-70.48,62.96,6.53
173,Vieques,40,PR,1600017159,83,18.43,-65.83,88.0,10.29
174,Dhule,99,IN,1600017160,83,20.9,74.78,79.02,8.68
175,El Alto,3,PE,1600017160,66,-4.27,-81.21,70.63,15.39
176,Flin Flon,75,CA,1600017160,61,54.77,-101.86,46.4,5.82
177,Hithadhoo,100,MV,1600016367,69,-0.6,73.08,82.33,5.66
178,Marzuq,67,YE,1600017161,44,14.4,46.47,84.9,5.55
179,Te Anau,100,NZ,1600016995,91,-45.42,167.72,49.73,7.45
180,Kaeo,5,NZ,1600017161,3,-35.1,173.78,45.0,1.99
181,Lobito,60,AO,1600017161,77,-12.35,13.55,71.38,5.61
182,Taksimo,98,RU,1600017161,82,56.34,114.88,54.73,3.27
183,Parabel',100,RU,1600017162,93,58.7,81.48,53.2,7.29
184,Najrān,28,SA,1600016902,15,17.49,44.13,91.4,5.82
185,Rawson,0,AR,1600016670,38,-43.3,-65.1,55.56,15.79
186,Mayo,40,US,1600016755,83,38.89,-76.51,79.0,8.05
187,Chui,95,UY,1600016744,92,-33.7,-53.46,60.35,4.79
188,Shimoda,11,JP,1600017162,96,34.67,138.95,70.0,8.1
189,Bilāspur,97,IN,1600017163,77,22.08,82.15,79.83,4.68
190,Tateyama,75,JP,1600017163,94,34.98,139.87,73.0,9.17
191,Pechenga,40,RU,1600017163,93,69.53,31.17,46.4,5.82
192,Millerovo,0,RU,1600017163,30,48.92,40.4,62.92,5.1
193,Klaksvík,98,FO,1600017163,76,62.23,-6.59,50.0,1.12
194,Kruisfontein,0,ZA,1600016980,66,-34.0,24.73,57.99,3.0
195,Hengshui,96,CN,1600017164,77,37.73,115.7,67.98,6.67
196,Sechura,21,PE,1600017164,56,-5.56,-80.82,74.16,10.02
197,Requena,84,ES,1600017165,38,39.49,-1.1,80.01,7.0
198,Antalaha,31,MG,1600016773,78,-14.9,50.28,70.61,10.71
199,Waingapu,100,ID,1600017165,83,-9.66,120.26,73.4,7.02
200,Cockburn Town,40,TC,1600016762,70,21.46,-71.14,84.2,5.82
201,Marsabit,71,KE,1600017165,43,2.33,37.99,74.48,20.76
202,São Filipe,77,CV,1600016487,78,14.9,-24.5,80.22,14.36
203,Riyadh,11,SA,1600016648,20,24.69,46.72,95.0,2.24
204,Halkirk,100,CA,1600017166,75,52.28,-112.15,48.0,7.0
205,Severo-Kuril'sk,18,RU,1600017166,82,50.68,156.12,48.81,22.1
206,Narsaq,0,GL,1600016586,31,60.92,-46.05,46.4,3.36
207,Port Elizabeth,20,ZA,1600017166,72,-33.92,25.57,59.0,17.22
208,Palmer,75,US,1600017167,56,42.16,-72.33,73.4,6.93
209,Luan,20,CH,1600017167,57,46.36,6.98,78.8,9.17
210,Yuanping,100,CN,1600017167,90,38.72,112.76,61.74,1.86
211,Ust'-Kulom,100,RU,1600017167,94,61.69,53.69,49.86,10.54
212,Saint-Augustin,100,CA,1600017168,52,51.23,-58.65,59.5,19.82
213,Korla,55,CN,1600017168,74,41.76,86.15,69.01,5.99
214,Sokol,47,RU,1600017168,87,59.46,40.12,48.97,10.36
215,Águeda Municipality,77,PT,1600017168,68,40.58,-8.44,82.99,6.04
216,Fortuna,0,US,1600016378,98,40.6,-124.16,53.01,1.01
217,Lüderitz,0,NA,1600017169,66,-26.65,15.16,58.73,25.59
218,Portland,90,US,1600016477,93,45.52,-122.68,53.6,1.03
219,Baruun-Urt,0,MN,1600017169,58,46.68,113.28,44.98,8.46
220,Tautira,20,PF,1600016471,73,-17.73,-149.15,75.2,3.36
221,Mahébourg,75,MU,1600017170,83,-20.41,57.7,71.6,10.29
222,Ashtian,0,IR,1600017170,28,34.52,50.0,64.67,10.74
223,Berekum,82,GH,1600017171,95,7.45,-2.58,75.13,1.9
224,Deputatsky,97,RU,1600017112,85,69.3,139.9,36.41,2.46
225,Muroto-misakicho,4,JP,1600017171,78,33.28,134.15,77.2,2.48
226,Souillac,75,MU,1600017171,83,-20.52,57.52,71.6,10.29
227,Olafsvik,97,IS,1600016635,66,64.89,-23.71,47.32,10.98
228,Iqaluit,90,CA,1600017172,80,63.75,-68.51,39.2,3.36
229,Piranhas,0,BR,1600017172,12,-16.43,-51.82,99.95,7.4
230,Adoni,100,IN,1600017172,90,15.63,77.28,72.95,15.97
231,Volot,16,RU,1600017172,73,57.93,30.7,52.43,9.44
232,Haines Junction,25,CA,1600016748,68,60.75,-137.51,40.62,2.64
233,Lagdo,20,CM,1600017173,58,9.05,13.73,87.8,9.17
234,Udachny,18,RU,1600017173,75,66.42,112.4,42.8,4.47
235,Vardø,75,NO,1600016785,93,70.37,31.11,48.2,9.17
236,Bubaque,0,GW,1600017173,81,11.28,-15.83,81.64,14.5
237,San Quintín,0,MX,1600016770,52,30.48,-115.95,78.06,7.78
238,Jalu,0,LY,1600017174,21,29.03,21.55,93.4,11.07
239,Qeshm,0,IR,1600017175,46,26.96,56.27,91.4,4.7
240,Yangi Marg`ilon,0,UZ,1600016799,48,40.43,71.72,66.2,4.7
241,Severodvinsk,75,RU,1600017175,93,64.56,39.83,51.8,6.71
242,Gao,42,ML,1600017175,13,16.64,1.64,103.82,10.54
243,Fairbanks,1,US,1600017122,75,64.84,-147.72,37.0,2.04
244,Sistranda,75,NO,1600017175,87,63.73,8.83,51.8,19.46
245,Khuzhir,100,RU,1600017176,82,53.19,107.34,48.09,8.5
246,Rundu,0,NA,1600017176,18,-17.93,19.77,73.92,2.3
247,Grindavik,90,IS,1600016790,87,63.84,-22.43,46.4,16.11
248,Turtas,62,RU,1600017176,94,58.94,69.13,47.32,2.44
249,Lockport,1,US,1600017169,64,41.59,-88.06,73.0,5.82
250,Vao,95,NC,1600017177,78,-22.67,167.48,69.3,21.3
251,Nanortalik,0,GL,1600017177,67,60.14,-45.24,40.01,8.21
252,Padang,92,ID,1600017035,72,-0.95,100.35,77.9,3.44
253,Saint-Joseph,22,RE,1600017177,73,-21.37,55.62,69.8,10.29
254,College,20,US,1600016902,86,64.86,-147.8,37.0,3.36
255,Muros,92,ES,1600016730,44,42.78,-9.06,82.99,5.99
256,St. George's,20,GD,1600017138,75,12.06,-61.75,89.6,16.11
257,Soyo,15,AO,1600017178,77,-6.13,12.37,75.36,10.11
258,Arraial do Cabo,10,BR,1600017127,61,-22.97,-42.03,86.0,23.04
259,Miguel Hidalgo,40,MX,1600017179,56,19.42,-99.2,68.0,9.17
260,Malakal,100,SS,1600017179,96,9.53,31.66,72.45,5.37
261,Srednekolymsk,0,RU,1600017179,74,67.45,153.68,40.48,2.59
262,Atasū,98,KZ,1600016981,28,48.68,71.64,65.62,7.09
263,Daşoguz,0,TM,1600017179,40,41.84,59.97,68.0,6.93
264,Ponta Delgada,20,PT,1600016848,73,37.73,-25.67,73.4,14.99
265,Nuuk,0,GL,1600017097,44,64.18,-51.72,39.2,8.05
266,Waitati,100,NZ,1600017180,75,-45.75,170.57,48.99,15.99
267,Bandar-e Lengeh,0,IR,1600017180,55,26.56,54.88,91.4,7.07
268,Kunshan,78,CN,1600017180,88,31.38,120.95,75.99,4.47
269,Nikolskoye,40,RU,1600017181,66,59.7,30.79,55.99,20.13
270,Kununurra,40,AU,1600017181,83,-15.77,128.73,73.4,2.24
271,Vicuña,20,CL,1600017181,76,-30.03,-70.71,57.2,12.75
272,Priverno,75,IT,1600017181,50,41.47,13.19,84.99,4.0
273,Kaoma,16,ZM,1600017182,23,-14.78,24.8,72.79,2.86
274,Otane,90,NZ,1600016955,84,-39.88,176.63,50.0,5.01
275,Kokoda,84,PG,1600017182,73,-8.88,147.74,71.96,0.72
276,Ocean City,90,US,1600017182,64,39.28,-74.57,82.0,6.93
277,Pilar,75,BR,1600017182,58,-9.6,-35.96,82.4,19.46
278,Fuyu,4,CN,1600017183,92,45.18,124.82,53.55,3.33
279,Mount Isa,0,AU,1600016789,32,-20.73,139.5,69.8,6.93
280,Naze,75,JP,1600017183,100,28.37,129.48,77.0,8.05
281,Antofagasta,20,CL,1600017129,63,-23.65,-70.4,60.8,13.87
282,Dunedin,100,NZ,1600016779,81,-45.87,170.5,50.0,4.0
283,Peniche,92,PT,1600016802,85,39.36,-9.38,75.0,11.99
284,Westport,20,US,1600017184,69,41.14,-73.36,75.99,9.17
285,Mionica,11,BA,1600017184,50,44.87,18.46,82.99,1.12
286,Shelburne,1,CA,1600017075,60,44.08,-80.2,73.4,19.46
287,Kanhangad,75,IN,1600017185,100,12.31,75.11,75.2,2.24
288,Stonewall,20,CA,1600017185,62,50.13,-97.33,55.4,16.11
289,Billings Metropolitan Area,20,US,1600016916,58,45.78,-108.5,63.0,8.05
290,Almuñécar,100,ES,1600017185,63,36.73,-3.69,82.99,5.35
291,Aban,53,RU,1600017186,92,56.67,96.06,45.25,4.9
292,Yelan’-Kolenovskiy,0,RU,1600017186,37,51.16,41.15,61.48,6.38
293,Englehart,90,CA,1600017186,82,47.82,-79.87,68.0,21.92
294,Lufilufi,75,WS,1600017186,100,-13.87,-171.6,75.2,21.21
295,Moerai,9,PF,1600017187,87,-22.43,-151.33,75.25,17.52
296,Imeni Babushkina,93,RU,1600017187,92,59.76,43.13,49.73,9.42
297,Saint-François,0,FR,1600016796,27,46.42,3.91,87.8,6.93
298,Bilibino,88,RU,1600016883,83,68.05,166.44,36.46,6.33
299,Kabanjahe,100,ID,1600017187,96,3.1,98.49,64.76,1.97
300,Amnat Charoen,40,TH,1600017188,76,15.86,104.63,79.57,1.48
301,Kumano,75,JP,1600017188,73,34.34,132.59,69.8,6.93
302,Otjiwarongo,0,NA,1600017188,20,-20.46,16.65,70.2,5.61
303,Tura,100,IN,1600017188,97,25.52,90.22,74.8,5.84
304,Asău,36,RO,1600016826,79,46.43,26.4,66.0,4.12
305,Vila Velha,20,BR,1600016372,58,-20.33,-40.29,82.4,17.22
306,Palana,100,RU,1600017189,89,59.12,159.97,42.76,16.93
307,Brookhaven,27,US,1600017189,76,31.58,-90.44,88.0,6.87
308,Itarema,16,BR,1600016822,52,-2.92,-39.92,85.48,22.44
309,Grand-Santi,1,GF,1600016765,30,4.25,-54.38,98.44,4.52
310,Norman Wells,75,CA,1600017190,77,65.28,-126.83,32.0,2.24
311,Provideniya,100,RU,1600017190,92,64.38,-173.3,43.47,16.91
312,Hofn,90,IS,1600016585,66,64.25,-15.21,48.2,12.75
313,Aksarka,54,RU,1600017190,80,66.56,67.8,45.07,6.73
314,Codrington,14,AU,1600016363,92,-38.27,141.97,47.89,8.57
315,Chipinge,47,ZW,1600017191,63,-20.19,32.62,62.6,5.46
316,Camaná,56,PE,1600017191,63,-16.62,-72.71,65.25,8.9
317,Hambantota,100,LK,1600016845,77,6.12,81.12,80.46,15.88
318,Villa Bruzual,50,VE,1600017191,66,9.33,-69.12,87.67,5.79
319,Afuá,13,BR,1600017192,55,-0.16,-50.39,91.49,6.02
320,Houffalize,47,BE,1600017192,52,50.13,5.79,78.01,1.01
321,São José do Belmonte,54,BR,1600017192,17,-7.86,-38.76,92.89,12.68
322,Siddipet,100,IN,1600017193,89,18.1,78.85,75.76,8.37
323,Buraidah,0,SA,1600017193,16,26.33,43.98,98.6,6.93
324,Puri,20,IN,1600017193,89,19.8,85.85,84.2,4.7
325,Jumla,98,NP,1600016886,68,29.27,82.18,61.72,1.21
326,Tambun,20,ID,1600017193,78,-6.26,107.07,82.99,3.36
327,Goderich,49,CA,1600017087,82,43.75,-81.72,71.01,21.27
328,Mbandaka,100,CD,1600017194,91,0.05,18.26,74.32,1.7
329,Xam Nua,100,LA,1600017194,93,20.42,104.04,68.14,1.63
330,Molina,20,CL,1600017194,71,-35.12,-71.28,62.01,10.29
331,Astoria,90,US,1600016931,93,46.19,-123.83,55.4,3.2
332,Rodrigues Alves,20,BR,1600017195,56,-7.74,-72.65,93.2,4.7
333,Tegul'det,0,RU,1600017195,84,57.31,88.17,45.59,3.33
334,Harper,59,LR,1600016769,86,4.38,-7.72,77.7,13.27
335,Manaus,40,BR,1600016971,62,-3.1,-60.02,93.2,4.7
336,Ishigaki,76,JP,1600017195,73,24.34,124.16,83.12,7.56
337,Takhtamygda,92,RU,1600017196,93,54.1,123.57,52.39,2.8
338,Gravdal,75,NO,1600017196,87,68.12,13.5,50.0,5.82
339,Kautokeino,90,NO,1600017081,77,69.01,23.04,43.68,5.06
340,Shīeli,73,KZ,1600017196,25,44.17,66.75,70.16,6.91
341,Stykkisholmur,97,IS,1600017196,65,65.08,-22.73,47.34,11.23
342,Nyrob,100,RU,1600017197,93,60.73,56.72,49.55,8.63
343,Kholodnyy,1,RU,1600017197,89,62.72,147.95,33.06,1.86
344,Pevek,27,RU,1600017197,83,69.7,170.31,41.85,9.89
345,Ixtapa,5,MX,1600017197,74,20.7,-105.2,87.01,6.93
346,Moree,0,AU,1600017198,66,-29.47,149.85,53.6,9.17
347,Ugoofaaru,100,MV,1600016839,78,5.67,73.0,82.69,10.83
348,Ves'yegonsk,12,RU,1600017198,74,58.66,37.26,51.55,9.93
349,Blackwater,0,AU,1600017198,88,-23.58,148.88,60.12,8.19
350,Teahupoo,20,PF,1600017198,73,-17.83,-149.27,75.2,3.36
351,Hamilton,40,US,1600016731,74,39.18,-84.53,81.0,5.82
352,La Ferté-Bernard,0,FR,1600017199,26,48.19,0.65,84.2,5.82
353,Simao,100,CN,1600017199,94,22.79,100.97,65.62,1.97
354,Praia,20,CV,1600016576,75,14.92,-23.51,81.86,12.33
355,Mossamedes,45,AO,1600017199,83,-15.2,12.15,64.38,10.87
356,Gemeente Wageningen,34,NL,1600017200,64,51.97,5.67,75.0,8.05
357,Lorengau,66,PG,1600017200,82,-2.02,147.27,81.88,12.75
358,Storforshei,75,NO,1600017200,87,66.4,14.52,48.2,13.87
359,Inhambane,0,MZ,1600017200,76,-23.86,35.38,70.7,9.13
360,Lata,66,PT,1600016644,50,40.16,-8.33,82.0,8.01
361,Iquique,20,CL,1600017055,59,-20.22,-70.14,64.4,12.75
362,Ongandjera,2,NA,1600017201,17,-17.88,15.07,75.92,5.64
363,Manggar,100,ID,1600017201,81,-2.88,108.27,79.97,6.82
364,Swan Hill,0,AU,1600016749,94,-35.34,143.55,43.47,5.75
365,Guerrero Negro,0,MX,1600017201,45,27.98,-114.06,81.25,7.2
366,Kasongo-Lunda,59,CD,1600017202,31,-6.47,16.82,88.18,0.78
367,Port Hedland,68,AU,1600017069,69,-20.32,118.57,75.2,8.05
368,Cayenne,40,GF,1600016714,52,4.93,-52.33,91.4,13.87
369,Nishihara,75,JP,1600017073,88,26.18,127.76,80.6,5.82
370,Montepuez,79,MZ,1600017202,49,-13.13,39.0,79.52,11.54
371,Acará,21,BR,1600017203,34,-1.96,-48.2,98.08,5.28
372,Louiseville,90,CA,1600016998,77,46.26,-72.94,62.01,5.82
373,Prokop'yevsk,0,RU,1600017203,72,53.91,86.72,44.8,2.35
374,Tezu,93,IN,1600017203,80,27.92,96.17,75.6,1.9
375,Kakching,100,IN,1600017203,92,24.48,93.98,71.22,1.32
376,Port Hueneme,75,US,1600016863,88,34.15,-119.2,62.6,5.91
377,Juradó,81,CO,1600017204,72,7.11,-77.76,83.05,6.35
378,Road Town,40,VG,1600017204,74,18.42,-64.62,87.8,8.05
379,Ambon City,96,ID,1600017204,81,-3.7,128.18,78.22,12.35
380,Manaíra,70,BR,1600017204,20,-7.71,-38.15,89.71,9.86
381,Avenal,0,US,1600017033,39,36.0,-120.13,82.0,3.47
382,Maltahöhe,0,NA,1600017205,21,-24.83,16.98,70.3,15.88
383,Assiut,0,EG,1600017205,32,27.18,31.18,93.2,13.87
384,George Town,20,MY,1600017205,83,5.41,100.34,80.6,2.98
385,Sakakah,20,SA,1600016945,12,29.97,40.21,100.4,13.73
386,Takoradze,27,GH,1600016718,83,4.88,-1.76,78.21,10.31
387,Krasnoshchekovo,12,RU,1600017206,60,51.67,82.73,51.67,4.32
388,Smithers,90,CA,1600017206,100,54.78,-127.17,48.2,3.44
389,Businga,41,CD,1600017206,82,3.33,20.88,75.88,1.61
390,Tarko-Sale,49,RU,1600016803,89,64.92,77.78,46.0,10.0
391,Baoshan,100,CN,1600017172,93,46.56,131.42,55.99,2.95
392,‘Āhuimanu,20,US,1600016644,69,21.44,-157.84,77.0,9.17
393,Arlit,4,NE,1600017207,7,18.74,7.39,106.07,19.06
394,Salalah,40,OM,1600016547,83,17.02,54.09,82.4,6.93
395,Puerto Escondido,75,MX,1600017087,65,15.85,-97.07,82.4,2.33
396,Omsukchan,97,RU,1600017207,81,62.53,155.8,39.88,6.58
397,Krasnosel'kup,100,RU,1600017208,91,65.7,82.47,52.65,9.8
398,Nizwá,10,OM,1600017208,24,22.93,57.53,91.31,8.59
399,Goundam,38,ML,1600017208,16,16.41,-3.67,104.31,4.99
400,Roald,75,NO,1600017209,71,62.58,6.13,53.6,17.22
401,Havelock,90,US,1600017209,78,34.88,-76.9,84.0,10.29
402,Sungai Penuh,99,ID,1600017209,95,-2.08,101.38,65.3,1.43
403,La Rioja,16,ES,1600017209,22,42.25,-2.5,91.4,12.75
404,Manukan,83,PH,1600017209,81,8.53,123.1,79.63,0.72
405,Hasaki,75,JP,1600017152,100,35.73,140.83,70.0,3.36
406,Sisimiut,0,GL,1600017210,73,66.94,-53.67,37.36,1.95
407,Jasper,1,US,1600017210,68,37.2,-94.35,73.99,4.7
408,Semīrom,39,IR,1600017210,36,31.42,51.57,57.11,8.37
409,Mahbūbnagar,100,IN,1600017211,91,16.73,77.98,74.44,7.72
410,Pangnirtung,20,CA,1600017211,65,66.15,-65.71,41.0,5.82
411,Kysyl-Syr,7,RU,1600017211,95,63.9,122.76,41.4,6.44
412,Semnan,14,IR,1600017211,45,35.57,53.4,70.97,10.07
413,Zaysan,11,KZ,1600017211,39,47.47,84.87,54.01,7.23
414,Vernon,68,CA,1600016927,53,50.26,-119.27,63.0,1.45
415,Karatsu,22,JP,1600017212,57,33.44,129.97,70.0,3.0
416,San Andrés,75,CO,1600017212,94,12.58,-81.7,78.8,6.93
417,Waitakere,97,NZ,1600017212,66,-36.92,174.66,57.0,17.22
418,Coquimbo,20,CL,1600016873,76,-29.95,-71.34,57.2,12.75
419,Puro,100,PH,1600017213,80,12.48,123.38,81.19,5.59
420,Skjervøy,36,NO,1600017213,81,70.03,20.97,50.0,5.82
421,Uxbridge,94,US,1600017213,63,42.08,-71.63,73.99,8.25
422,Yokadouma,94,CM,1600017213,80,3.52,15.05,76.03,1.88
423,Punta Alta,0,AR,1600017214,35,-38.88,-62.07,58.69,16.64
424,Sola,100,VU,1600017214,87,-13.88,167.55,78.31,23.24
425,Ubari,0,LY,1600017214,18,26.59,12.78,93.94,10.71
426,Smolenskaya,28,RU,1600017214,50,44.79,38.8,79.0,6.71
427,Grand Gaube,88,MU,1600017214,82,-20.01,57.66,69.01,1.99
428,Acapulco de Juárez,40,MX,1600017215,70,16.86,-99.89,86.0,5.82
429,Morvi,98,IN,1600017215,10,22.82,70.83,84.0,8.86
430,Povenets,100,RU,1600017215,82,62.85,34.83,51.6,19.84
431,Tuyen Quang,100,VN,1600017118,94,21.82,105.22,78.01,1.14
432,Brønnøysund,75,NO,1600017215,87,65.46,12.2,50.0,20.8
433,Montabaur,88,DE,1600017216,50,50.43,7.83,75.0,1.3
434,Havre-St-Pierre,90,CA,1600017216,76,50.23,-63.6,57.2,4.7
435,Sibu,40,MY,1600017216,94,2.3,111.82,77.0,2.24
436,Denpasar,20,ID,1600017216,88,-8.65,115.22,78.8,5.82
437,Vic,0,ES,1600017217,53,41.93,2.25,84.0,1.01
438,Kavaratti,100,IN,1600017217,80,10.57,72.64,81.86,15.66
439,High Prairie,100,CA,1600017217,67,55.43,-116.49,47.8,5.75
440,Urusha,95,RU,1600017217,95,54.05,122.9,50.59,2.98
441,North Bend,90,US,1600017218,100,43.41,-124.22,54.0,3.6
442,Katobu,99,ID,1600017218,90,-4.94,122.53,71.82,2.3
443,Yamada,100,JP,1600017218,90,39.47,141.95,64.17,9.62
444,Gerāsh,20,IR,1600017218,16,27.67,54.14,93.2,6.93
445,Broome,75,US,1600017219,68,42.25,-75.83,71.01,13.87
446,Vredendal,2,ZA,1600017219,61,-31.67,18.5,56.1,10.22
447,Emerald,0,AU,1600016956,72,-23.53,148.17,64.4,8.05
448,Sorong,94,ID,1600017219,88,-0.88,131.25,78.64,18.01
449,Price,1,US,1600017219,24,39.6,-110.81,66.2,5.95
450,Kommunar,40,RU,1600017220,66,59.62,30.39,55.99,20.13
451,Guisa,40,CU,1600017220,52,20.25,-76.54,89.6,10.29
452,Canavieiras,8,BR,1600017220,73,-15.68,-38.95,77.52,10.0
453,Hearst,100,CA,1600017221,72,49.68,-83.67,50.95,12.46
454,Oktyabr'skiy,74,RU,1600017221,78,54.48,53.47,51.12,6.31
455,Valparaíso,0,CL,1600017221,45,-33.04,-71.63,66.2,10.29
456,Copiapó,90,CL,1600017073,82,-27.37,-70.33,55.4,1.12
457,Seoul,1,KR,1600017066,93,37.57,126.98,66.2,3.51
458,Atar,3,MR,1600017222,11,20.52,-13.05,107.4,11.05
459,Ewo,89,CG,1600017095,77,-0.87,14.82,78.76,3.74
460,Shache,0,CN,1600017222,25,38.42,77.24,68.23,7.23
461,Vale,0,GE,1600017222,83,41.62,42.87,77.0,9.17
462,Smyshlyayevka,0,RU,1600017223,62,53.24,50.39,57.2,6.71
463,Coolum Beach,7,AU,1600017223,97,-26.53,153.1,57.99,2.48
464,Islamkot,60,PK,1600017223,51,24.7,70.18,92.57,8.39
465,Sumbawanga,44,TZ,1600017223,51,-7.97,31.62,63.88,3.62
466,Fallon,1,US,1600017223,16,39.47,-118.78,75.99,4.7
467,Chu,0,KZ,1600017224,39,43.6,73.76,65.19,8.37
468,Payson,1,US,1600017224,34,40.04,-111.73,75.99,5.82
469,Yumen,0,CN,1600017224,40,40.28,97.2,50.99,5.84
470,Merrill,90,US,1600017106,82,45.18,-89.68,60.8,9.17
471,Khovd,0,MN,1600017226,50,48.01,91.64,46.53,1.3
472,Barra de Tecoanapa,54,MX,1600016899,63,16.52,-98.75,86.86,6.91
473,Nantucket,1,US,1600017226,68,41.28,-70.1,69.8,16.11
474,Necochea,88,AR,1600017226,65,-38.55,-58.74,54.0,11.01
475,Kosh-Agach,0,RU,1600017227,74,50.0,88.67,36.23,1.59
476,Saýat,0,TM,1600017227,35,38.78,63.88,71.6,6.93
477,Santa Cruz de la Sierra,28,BO,1600016882,21,-17.8,-63.17,100.69,17.74
478,Abhā,20,SA,1600017227,60,18.22,42.51,77.0,5.82
479,Tigil',100,RU,1600017227,85,57.8,158.67,43.32,10.49
480,Altay,7,CN,1600017054,44,47.87,88.12,50.2,4.47
481,Trogir,0,HR,1600017228,29,43.51,16.25,87.8,16.11
482,Northam,0,GB,1600016877,86,51.03,-4.22,70.0,1.99
483,Kenai,1,US,1600017228,92,60.55,-151.26,30.2,3.36
484,Provincia di Taranto,0,IT,1600017229,40,40.62,17.25,87.8,16.11
485,Sur,62,OM,1600017229,66,22.57,59.53,81.45,8.43
486,Chokurdakh,57,RU,1600017229,72,70.63,147.92,43.21,3.4
487,Lavrentiya,100,RU,1600016840,92,65.58,-171.0,42.98,8.16
488,Bengkulu,57,ID,1600017019,89,-3.8,102.27,76.35,6.91
489,Kolyvan',70,RU,1600017230,87,55.31,82.74,48.2,2.24
490,Itoman,75,JP,1600017230,88,26.12,127.67,80.6,5.82
491,Lake City,40,US,1600017230,83,30.19,-82.64,87.01,6.93
492,Brae,75,GB,1600017230,93,60.4,-1.35,51.8,1.12
493,Kayerkan,40,RU,1600017230,82,69.35,87.76,55.4,15.66
494,Vostok,98,RU,1600017231,69,46.49,135.88,42.39,3.62
495,Poquoson,1,US,1600017144,83,37.12,-76.35,82.0,8.05
496,Ulaanbaatar,40,MN,1600016891,80,47.91,106.88,39.2,6.71
497,Amalāpuram,92,IN,1600017231,94,16.58,82.02,78.55,1.97
498,Huarmey,40,PE,1600017232,66,-10.07,-78.15,67.55,11.32
499,Beyneu,0,KZ,1600017232,36,45.32,55.2,73.53,12.33
500,Paine,4,CL,1600017232,54,-33.82,-70.75,64.4,11.41
501,San Matías,0,BO,1600017066,9,-16.37,-58.4,108.81,8.61
502,Akureyri,75,IS,1600017232,81,65.68,-18.09,44.6,5.82
503,Cabo San Lucas,20,MX,1600017215,74,22.89,-109.91,87.01,11.41
504,Tulnici,16,RO,1600017233,47,45.92,26.67,77.0,4.7
505,Nizhniy Baskunchak,0,RU,1600017233,36,48.22,46.83,64.63,5.39
506,Abalak,55,RU,1600017233,95,58.13,68.59,48.42,2.55
507,Dukat,98,RU,1600017234,84,62.55,155.55,37.51,5.68
508,Hong Kong,93,HK,1600017114,95,22.29,114.16,82.99,4.0
509,Odda,100,NO,1600017234,93,60.07,6.55,53.01,4.41
510,Myatlevo,40,RU,1600017234,87,54.9,35.68,60.8,8.95
511,Titay,100,PH,1600017234,86,7.81,122.53,76.39,1.74
512,Miramar,40,US,1600017235,74,25.99,-80.23,88.0,12.75
513,Inverell,18,AU,1600017235,89,-29.78,151.12,48.99,3.11
514,Nauta,0,PE,1600017235,35,-4.51,-73.58,98.37,3.89
515,Nuquí,75,CO,1600017235,78,5.71,-77.27,82.4,3.36
516,Dingle,100,PH,1600017236,91,11.0,122.67,77.05,4.74
517,Contamana,56,PE,1600017236,39,-7.33,-75.02,96.76,2.17
518,Saldanha,89,ZA,1600017236,63,-33.01,17.94,60.8,11.41
519,Lerwick,75,GB,1600017236,93,60.15,-1.15,51.8,1.12
520,Rockland,89,US,1600017236,75,41.17,-74.05,75.0,9.57
521,Mareeba,75,AU,1600016653,88,-17.0,145.43,68.0,9.17
522,Grão Mogol,0,BR,1600017237,26,-16.56,-42.89,84.34,9.89
523,Labuhan,98,ID,1600017237,75,-6.88,112.21,77.72,6.82
524,Saint Anthony,1,US,1600017083,72,45.02,-93.22,66.99,5.79
525,Yakeshi,52,CN,1600017238,91,49.28,120.73,49.48,7.61
526,Cascais,20,PT,1600017238,78,38.7,-9.42,73.4,12.75
527,Celestún,22,MX,1600017238,70,20.87,-90.4,85.41,9.8
528,Ružomberok,95,SK,1600017239,57,49.07,19.31,75.2,1.12
529,Bowen,40,AU,1600017065,93,-20.02,148.23,62.6,6.93
530,Broken Hill,0,AU,1600017239,58,-31.95,141.43,53.6,18.34
531,Nur-Sultan,100,KZ,1600017239,36,51.18,71.45,64.4,8.95
532,Kuching,40,MY,1600017239,100,1.55,110.33,75.2,4.7
533,Mahibadhoo,100,MV,1600017240,77,3.78,72.97,82.62,9.93
534,Ibrā’,32,OM,1600017240,30,22.69,58.53,86.72,5.82
535,Molokovo,18,RU,1600017240,77,58.17,36.76,50.83,10.8
536,Bandarbeyla,86,SO,1600017240,74,9.49,50.81,79.81,29.48
537,Lakewood,0,US,1600017241,29,39.7,-105.08,79.0,1.01
538,Manokwari,100,ID,1600016877,78,-0.87,134.08,79.2,4.18
539,Herat Province,0,AF,1600017241,20,34.5,62.0,73.4,12.75
540,Imbituba,53,BR,1600016853,57,-28.24,-48.67,80.6,14.99
541,Yeppoon,90,AU,1600017242,82,-23.13,150.73,66.2,6.93
542,Walvis Bay,2,NA,1600016798,56,-22.96,14.51,68.0,18.34
543,Sernovodskoye,20,RU,1600017242,73,43.32,45.16,71.6,13.42
544,Aykhal,31,RU,1600017242,75,66.0,111.5,42.8,4.47
545,Lar,100,IN,1600017242,79,26.2,83.97,84.31,1.19
546,Mitú,8,CO,1600017204,45,1.2,-70.17,93.02,4.12
547,Puerto del Rosario,20,ES,1600017243,73,28.5,-13.86,77.0,5.82
548,Anadyr,75,RU,1600017244,93,64.75,177.48,44.6,24.61
549,Lundazi,71,ZM,1600017244,43,-12.29,33.18,71.1,9.89
550,Paamiut,0,GL,1600016725,69,61.99,-49.67,37.02,6.49
551,Port Macquarie,39,AU,1600017244,97,-31.43,152.92,53.01,4.5
552,Chapayevka,0,UA,1600017244,35,47.47,36.35,69.26,3.76
553,Whyalla,75,AU,1600017245,87,-33.03,137.58,50.0,5.82
554,Evansville,40,US,1600016835,61,37.97,-87.56,81.0,4.7
555,Kemin,0,KG,1600017245,35,42.78,75.69,59.29,4.65
556,Ulaangom,0,MN,1600017245,61,49.98,92.07,44.17,0.83
557,Kilindoni,32,TZ,1600017246,82,-7.91,39.67,77.67,14.92
558,Quatre Cocos,75,MU,1600017246,83,-20.21,57.76,71.6,10.29
559,Isiro,95,CD,1600017246,94,2.77,27.62,69.48,1.63
560,Manjacaze,3,MZ,1600017246,73,-24.71,33.88,70.36,9.22
561,Talara,8,PE,1600017246,72,-4.58,-81.27,67.96,17.9
562,Shar,0,KZ,1600017247,33,49.59,81.05,58.48,3.94
563,Champaign,40,US,1600016650,73,40.13,-88.2,75.0,8.05
564,Ozark,6,US,1600017247,70,37.02,-93.21,75.0,8.61
565,Racibórz,58,PL,1600017193,82,50.09,18.22,71.01,2.71
566,Changji,89,CN,1600017247,25,44.02,87.32,66.2,4.47
567,Whitehorse,75,CA,1600017135,86,60.72,-135.05,37.99,3.36
568,Yabrūd,0,SY,1600017248,33,33.97,36.66,86.0,14.99
569,Shaoyang,100,CN,1600017248,86,27.23,111.45,67.12,2.84
570,La Libertad,75,EC,1600017248,78,-2.23,-80.9,73.4,6.93
571,Namatanai,12,PG,1600016977,82,-3.67,152.43,79.77,8.86
572,Okhotsk,11,RU,1600017249,69,59.38,143.3,51.8,2.3
573,Santa Luzia,0,BR,1600017249,28,-19.77,-43.85,84.2,9.17
574,Henties Bay,0,NA,1600017249,84,-22.12,14.28,59.0,5.99
575,Al Bardīyah,0,LY,1600017250,69,31.76,25.09,76.71,8.75
576,Monrovia,70,LR,1600016999,82,6.3,-10.8,79.88,12.55
577,Vengurla,90,IN,1600017250,100,15.87,73.63,77.0,2.24
578,Pokhara,99,NP,1600017250,82,28.23,83.98,72.59,2.46
579,Miyako,100,JP,1600017250,89,39.64,141.95,63.75,9.89
580,Cravo Norte,65,CO,1600017251,54,6.3,-70.2,90.93,5.66
581,Kropotkin,0,RU,1600017251,36,45.44,40.58,75.07,13.2
582,Isangel,98,VU,1600017251,82,-19.55,169.27,71.02,12.95
583,Shizuishan,21,CN,1600017251,49,39.23,106.77,62.02,2.06
584,Katangli,0,RU,1600017124,91,51.71,143.23,48.22,6.69
585,Punta Arenas,40,CL,1600016984,61,-53.15,-70.92,46.4,16.11
586,Conceição do Araguaia,69,BR,1600017124,12,-8.26,-49.26,106.86,4.07
587,Albany,58,US,1600017096,64,42.6,-73.97,73.99,1.01
588,Bluff,100,NZ,1600017036,98,-46.6,168.33,46.99,5.99
589,Ilulissat,5,GL,1600016366,46,69.22,-51.1,30.2,11.41
590,West Wendover,1,US,1600017125,23,40.74,-114.07,62.6,3.36
591,Kapaa,90,US,1600017125,78,22.08,-159.32,78.8,8.05
592,Cape Town,75,ZA,1600017125,82,-33.93,18.42,55.99,18.34
593,Biak,95,ID,1600017051,76,-0.91,122.88,75.38,6.89
594,Port Blair,89,IN,1600017125,79,11.67,92.75,82.36,13.13
595,Bambous Virieux,40,MU,1600016698,78,-20.34,57.76,71.6,6.93
596,Gijang,75,KR,1600017126,82,35.24,129.21,68.0,1.12
597,Aklavik,75,CA,1600017108,76,68.22,-135.01,32.0,3.36
598,Misratah,19,LY,1600017054,74,32.38,15.09,80.82,13.94
599,Laas,5,IT,1600017126,68,46.62,10.7,73.0,4.7
600,Kāmākhyānagar,92,IN,1600017127,90,20.93,85.55,79.47,4.09
601,Eastlake,90,US,1600017127,68,41.65,-81.45,73.99,14.99
602,Laguna,90,US,1600016612,77,38.42,-121.42,66.99,3.24
603,San Cristobal,40,VE,1600017127,49,7.77,-72.22,89.6,12.75
604,Levice,61,SK,1600017128,59,48.22,18.61,80.01,6.38
605,Innisfail,83,AU,1600017128,88,-17.53,146.03,69.12,10.87
606,Busselton,96,AU,1600017128,68,-33.65,115.33,57.0,9.78
607,Faya,20,SA,1600017128,60,18.39,42.45,77.0,5.82
608,Esperance,0,AU,1600017063,100,-33.87,121.9,51.8,8.05
609,Husavik,75,IS,1600016971,81,66.04,-17.34,44.6,9.17
610,Suicheng,57,CN,1600017129,95,33.9,117.93,66.78,4.72
611,Khatanga,8,RU,1600016984,76,71.97,102.5,48.4,5.59
612,Hermanus,67,ZA,1600016976,83,-34.42,19.23,54.0,5.99
613,Dikson,99,RU,1600017129,89,73.51,80.55,47.44,15.79
614,Cherskiy,0,RU,1600017129,80,68.75,161.3,40.15,6.6
615,Ushuaia,75,AR,1600016958,75,-54.8,-68.3,42.8,14.99
616,Mataura,91,NZ,1600017130,98,-46.19,168.86,46.99,5.99
617,Cidreira,28,BR,1600017069,82,-30.18,-50.21,69.26,8.19
618,Ponta do Sol,40,PT,1600017130,88,32.67,-17.1,73.4,13.87
619,Khandyga,81,RU,1600017130,63,62.67,135.6,52.84,5.26
620,Vestmannaeyjar,20,IS,1600016585,87,63.44,-20.27,50.0,18.34
621,Upernavik,99,GL,1600016784,97,72.79,-56.15,31.06,10.0
622,Tsimmerbude,20,RU,1600017131,77,54.67,20.13,60.8,11.18
623,Castro,0,BR,1600017131,30,-24.79,-50.01,85.39,9.28
624,Ambilobe,39,MG,1600017131,73,-13.2,49.05,74.3,4.54
625,Saskylakh,99,RU,1600017132,76,71.92,114.08,46.85,3.04
626,Wanaka,100,NZ,1600017132,81,-44.7,169.15,45.73,7.45
627,Port Alfred,44,ZA,1600017132,62,-33.59,26.89,62.02,13.85
628,Pisco,1,PE,1600017132,72,-13.7,-76.22,66.2,10.29
629,Sitka,1,US,1600016643,70,57.05,-135.33,48.2,4.27
630,Praia da Vitória,20,PT,1600017133,78,38.73,-27.07,78.01,10.8
631,Tuatapere,100,NZ,1600017133,98,-46.13,167.68,46.99,5.99
632,Kahului,1,US,1600017006,77,20.89,-156.47,73.99,3.36
633,Buenos Aires,40,AR,1600016962,82,-34.61,-58.38,64.99,9.17
634,Beringovskiy,100,RU,1600017134,97,63.05,179.32,48.58,12.68
635,Boa Vista,20,BR,1600017134,44,2.82,-60.67,93.2,8.05
636,Ancud,16,CL,1600017134,60,-41.87,-73.82,49.87,6.04
637,Leshan,100,CN,1600017134,91,29.56,103.76,67.06,2.19
638,Novorzhev,36,RU,1600017135,71,57.03,29.33,52.56,8.03
639,Kamyshin,0,RU,1600017135,42,50.1,45.42,59.72,4.7
640,Kimbe,74,PG,1600017135,85,-5.55,150.14,76.23,5.86
641,Leer,100,SS,1600016754,98,8.3,30.14,70.68,2.86
642,Puerto Ayora,40,EC,1600017135,64,-0.74,-90.35,73.4,18.34
643,San Patricio,75,MX,1600016690,75,19.22,-104.7,89.6,6.93
644,Bathsheba,20,BB,1600016711,70,13.22,-59.52,89.6,11.41
645,Carnarvon,0,AU,1600017136,93,-24.87,113.63,66.2,12.75
646,Xinmin,0,CN,1600017137,93,41.99,122.83,60.8,2.24
647,Vaini,75,TO,1600017137,72,-21.2,-175.2,68.0,11.41
648,East London,75,ZA,1600016709,72,-33.02,27.91,60.8,19.46
649,Faanui,40,PF,1600016632,78,-16.48,-151.75,77.86,11.18
650,Barrow,90,US,1600017137,93,71.29,-156.79,39.2,17.22
651,Turka,87,UA,1600017138,90,49.15,23.03,69.01,5.01
652,Ostrovnoy,98,RU,1600017093,93,68.05,39.51,47.01,6.24
653,Comodoro Rivadavia,20,AR,1600017138,33,-45.87,-67.5,57.2,11.41
654,Pochutla,90,MX,1600017138,70,15.74,-96.47,90.0,4.54
655,Plettenberg Bay,17,ZA,1600017138,65,-34.05,23.37,58.1,6.4
656,Marystown,100,CA,1600017139,100,47.17,-55.15,62.01,9.89
657,Ribeira Grande,75,PT,1600017139,78,38.52,-28.7,75.2,13.87
658,Gucheng,99,CN,1600017139,58,35.91,111.32,71.19,3.65
659,Meulaboh,95,ID,1600017139,85,4.14,96.13,78.12,2.73
660,Bredasdorp,24,ZA,1600017140,58,-34.53,20.04,57.2,18.34
661,Airai,72,TL,1600017140,77,-8.93,125.41,53.94,2.93
662,Clarksburg,90,US,1600017140,69,39.28,-80.34,77.0,8.05
663,Conde,75,BR,1600017140,58,-7.26,-34.91,84.2,16.11
664,Jalingo,73,NG,1600017140,87,8.88,11.37,78.42,3.42
665,Rikitea,22,PF,1600016978,81,-23.12,-134.97,72.64,11.79
666,Tazmalt,40,DZ,1600017141,74,36.39,4.4,78.8,4.7
667,Agadez,0,NE,1600016957,9,19.75,10.25,100.65,8.48
668,Atuona,37,PF,1600017141,77,-9.8,-139.03,78.1,15.5
669,Lebu,0,CL,1600017142,64,-37.62,-73.65,53.2,14.5
670,Mar del Plata,4,AR,1600017142,39,-38.0,-57.56,62.6,6.93
671,Tessalit,33,ML,1600017142,9,20.2,1.01,105.64,16.93
672,São João da Barra,0,BR,1600016561,54,-21.64,-41.05,82.4,20.8
673,Kailua,20,US,1600016681,69,21.4,-157.74,77.0,9.17
674,Susanville,1,US,1600017143,25,40.42,-120.65,66.99,2.46
675,Teguise,20,ES,1600017143,83,29.06,-13.56,75.2,5.82
676,Khiri Mat,100,TH,1600017143,79,16.83,99.8,80.28,2.06
677,Port Lincoln,1,AU,1600017049,90,-34.73,135.87,53.08,7.23
678,Prince Rupert,75,CA,1600017144,93,54.32,-130.32,53.6,2.35
679,New Norfolk,39,AU,1600017144,77,-42.78,147.06,46.0,3.0
680,Tasiilaq,79,GL,1600017144,60,65.61,-37.64,39.2,3.36
681,Butaritari,57,KI,1600017144,71,3.07,172.79,82.67,14.32
682,Sibolga,100,ID,1600017144,75,1.74,98.78,77.99,1.74
683,San Donà di Piave,0,IT,1600017145,54,45.63,12.57,84.0,3.36
684,Kloulklubed,75,PW,1600017145,94,7.04,134.26,77.0,11.63
685,Ukiah,75,US,1600017145,62,39.15,-123.21,75.0,2.59
686,Taoudenni,52,ML,1600017145,8,22.68,-3.98,112.71,9.98
687,Tiksi,28,RU,1600017146,85,71.69,128.87,40.51,1.25
688,Vila Franca do Campo,20,PT,1600016651,73,37.72,-25.43,73.4,14.99
689,Rocha,97,UY,1600017146,83,-34.48,-54.33,60.62,6.8
690,Rørvik,75,NO,1600017146,71,64.86,11.24,51.8,20.8
691,Mizdah,85,LY,1600017146,43,31.45,12.98,80.82,16.04
692,Galveston,20,US,1600017046,70,29.37,-94.97,87.8,13.87
693,Fort Nelson,75,CA,1600016684,86,58.81,-122.7,39.2,8.05
694,George Town,20,MY,1600016979,83,5.41,100.34,80.6,2.98
695,Saint Paul Harbor,1,US,1600016737,80,57.79,-152.41,39.2,6.93
696,Kavieng,16,PG,1600017147,77,-2.57,150.8,82.74,12.59
697,Tena,40,EC,1600017147,61,-0.98,-77.82,78.8,4.7
698,Gachsaran,34,IR,1600017148,26,30.36,50.8,91.4,1.19
699,Soverato Marina,97,IT,1600017148,74,38.69,16.55,82.4,5.82
700,Port-Gentil,40,GA,1600016948,74,-0.72,8.78,80.6,16.15
701,Yellowknife,75,CA,1600016932,69,62.46,-114.35,35.6,12.75
702,Los Llanos de Aridane,20,ES,1600017148,69,28.66,-17.92,78.8,4.7
703,Bethel,90,US,1600017149,68,41.37,-73.41,73.0,9.17
704,Havøysund,75,NO,1600016909,81,71.0,24.66,50.0,8.05
705,Katsuura,75,JP,1600017149,94,35.13,140.3,71.6,9.17
706,Hilo,71,US,1600016986,84,19.73,-155.09,71.01,3.0
707,Muisne,75,EC,1600017149,78,0.6,-80.03,82.4,4.7
708,Hoquiam,90,US,1600017149,100,46.98,-123.89,57.0,6.93
709,Yulara,0,AU,1600017150,46,-25.24,130.99,69.8,14.99
710,Berdigestyakh,100,RU,1600017150,90,62.1,126.7,49.28,9.01
711,Saint George,1,US,1600016973,15,37.1,-113.58,82.99,3.36
712,Parvatsar,0,IN,1600016687,37,26.88,74.77,86.81,6.04
713,Torbay,90,CA,1600017150,51,47.67,-52.73,62.01,11.41
714,Talnakh,40,RU,1600017000,82,69.49,88.4,55.4,15.66
715,Petropavlovsk-Kamchatskiy,1,RU,1600016635,86,53.05,158.65,39.2,13.42
716,Kaitangata,83,NZ,1600016860,93,-46.28,169.85,48.99,1.01
717,Shingū,50,JP,1600016758,83,33.73,135.98,70.52,5.86
718,Avarua,94,CK,1600017105,78,-21.21,-159.78,73.4,9.17
719,Tuktoyaktuk,90,CA,1600017151,84,69.45,-133.04,35.6,14.99
720,Moshi,20,TZ,1600016951,42,-3.35,37.33,80.6,5.82
721,Den Helder,19,NL,1600016963,77,52.96,4.76,66.2,13.87
722,Karwar,100,IN,1600017152,85,14.8,74.13,78.35,6.46
723,Geraldton,0,AU,1600017152,87,-28.77,114.6,53.6,9.17
724,Atherton,0,GB,1600017152,51,53.52,-2.49,75.99,3.0
725,Katherine,75,AU,1600017153,38,-14.47,132.27,75.2,2.24
726,Amahai,100,ID,1600017153,85,-3.33,128.92,77.11,7.11
727,Mehamn,90,NO,1600017119,93,71.04,27.85,48.2,3.36
728,Hobart,40,AU,1600017022,61,-42.88,147.33,46.4,13.87
729,Qaanaaq,54,GL,1600017153,81,77.48,-69.36,24.24,8.59
730,Constitución,0,CL,1600017154,47,-35.33,-72.42,60.4,14.54
731,Rome,90,US,1600016884,72,43.21,-75.46,66.2,4.7
732,Kumul,100,CN,1600017154,20,42.8,93.45,68.09,4.07
733,Salinópolis,91,BR,1600017154,75,-0.61,-47.36,83.1,12.93
734,Lompoc,90,US,1600016854,100,34.64,-120.46,53.6,8.72
735,Tual,57,ID,1600016916,80,-5.67,132.75,78.6,20.04
736,Thompson,75,CA,1600017155,75,55.74,-97.86,42.8,8.05
737,Camacha,40,PT,1600017155,73,33.08,-16.33,77.0,14.99
738,Elko,1,US,1600017155,27,41.0,-115.5,70.0,3.36
739,Gigmoto,61,PH,1600017156,78,13.78,124.39,81.05,4.34
740,Rudnogorsk,100,RU,1600017156,86,57.26,103.75,46.36,8.32
741,Kalawit,99,PH,1600017156,83,8.07,122.52,78.93,1.54
742,Mount Gambier,90,AU,1600016699,93,-37.83,140.77,51.8,5.82
743,Riviere-au-Renard,75,CA,1600017156,59,49.0,-64.4,62.6,9.17
744,Amapá,6,BR,1600016665,34,1.0,-52.0,97.45,4.5
745,Jamestown,90,US,1600017157,93,42.1,-79.24,66.0,6.93
746,Chicama,13,PE,1600017157,53,-7.84,-79.15,73.71,11.32
747,Ust'-Koksa,9,RU,1600017157,70,50.27,85.61,39.63,0.67
748,Leningradskiy,67,RU,1600017157,85,69.38,178.42,38.07,2.59
749,Zhigansk,77,RU,1600017158,91,66.77,123.37,45.03,14.92
750,Longyearbyen,75,SJ,1600017158,90,78.22,15.64,39.2,18.34
751,Tshikapa,5,CD,1600017158,29,-6.42,20.8,86.95,1.99
752,Victor Harbor,1,AU,1600017158,90,-35.57,138.62,52.0,8.68
753,Saint-Philippe,43,RE,1600017159,73,-21.36,55.77,69.8,10.29
754,Lagoa,4,PT,1600017063,80,39.05,-27.98,72.21,18.25
755,Richards Bay,0,ZA,1600017023,69,-28.78,32.04,73.15,17.52
756,Taltal,23,CL,1600017159,60,-25.4,-70.48,62.96,6.53
757,Vieques,40,PR,1600017159,83,18.43,-65.83,88.0,10.29
758,Dhule,99,IN,1600017160,83,20.9,74.78,79.02,8.68
759,El Alto,3,PE,1600017160,66,-4.27,-81.21,70.63,15.39
760,Flin Flon,75,CA,1600017160,61,54.77,-101.86,46.4,5.82
761,Hithadhoo,100,MV,1600016367,69,-0.6,73.08,82.33,5.66
762,Marzuq,67,YE,1600017161,44,14.4,46.47,84.9,5.55
763,Te Anau,100,NZ,1600016995,91,-45.42,167.72,49.73,7.45
764,Kaeo,5,NZ,1600017161,3,-35.1,173.78,45.0,1.99
765,Lobito,60,AO,1600017161,77,-12.35,13.55,71.38,5.61
766,Taksimo,98,RU,1600017161,82,56.34,114.88,54.73,3.27
767,Parabel',100,RU,1600017162,93,58.7,81.48,53.2,7.29
768,Najrān,28,SA,1600016902,15,17.49,44.13,91.4,5.82
769,Rawson,0,AR,1600016670,38,-43.3,-65.1,55.56,15.79
770,Mayo,40,US,1600016755,83,38.89,-76.51,79.0,8.05
771,Chui,95,UY,1600016744,92,-33.7,-53.46,60.35,4.79
772,Shimoda,11,JP,1600017162,96,34.67,138.95,70.0,8.1
773,Bilāspur,97,IN,1600017163,77,22.08,82.15,79.83,4.68
774,Tateyama,75,JP,1600017163,94,34.98,139.87,73.0,9.17
775,Pechenga,40,RU,1600017163,93,69.53,31.17,46.4,5.82
776,Millerovo,0,RU,1600017163,30,48.92,40.4,62.92,5.1
777,Klaksvík,98,FO,1600017163,76,62.23,-6.59,50.0,1.12
778,Kruisfontein,0,ZA,1600016980,66,-34.0,24.73,57.99,3.0
779,Hengshui,96,CN,1600017164,77,37.73,115.7,67.98,6.67
780,Sechura,21,PE,1600017164,56,-5.56,-80.82,74.16,10.02
781,Requena,84,ES,1600017165,38,39.49,-1.1,80.01,7.0
782,Antalaha,31,MG,1600016773,78,-14.9,50.28,70.61,10.71
783,Waingapu,100,ID,1600017165,83,-9.66,120.26,73.4,7.02
784,Cockburn Town,40,TC,1600016762,70,21.46,-71.14,84.2,5.82
785,Marsabit,71,KE,1600017165,43,2.33,37.99,74.48,20.76
786,São Filipe,77,CV,1600016487,78,14.9,-24.5,80.22,14.36
787,Riyadh,11,SA,1600016648,20,24.69,46.72,95.0,2.24
788,Halkirk,100,CA,1600017166,75,52.28,-112.15,48.0,7.0
789,Severo-Kuril'sk,18,RU,1600017166,82,50.68,156.12,48.81,22.1
790,Narsaq,0,GL,1600016586,31,60.92,-46.05,46.4,3.36
791,Port Elizabeth,20,ZA,1600017166,72,-33.92,25.57,59.0,17.22
792,Palmer,75,US,1600017167,56,42.16,-72.33,73.4,6.93
793,Luan,20,CH,1600017167,57,46.36,6.98,78.8,9.17
794,Yuanping,100,CN,1600017167,90,38.72,112.76,61.74,1.86
795,Ust'-Kulom,100,RU,1600017167,94,61.69,53.69,49.86,10.54
796,Saint-Augustin,100,CA,1600017168,52,51.23,-58.65,59.5,19.82
797,Korla,55,CN,1600017168,74,41.76,86.15,69.01,5.99
798,Sokol,47,RU,1600017168,87,59.46,40.12,48.97,10.36
799,Águeda Municipality,77,PT,1600017168,68,40.58,-8.44,82.99,6.04
800,Fortuna,0,US,1600016378,98,40.6,-124.16,53.01,1.01
801,Lüderitz,0,NA,1600017169,66,-26.65,15.16,58.73,25.59
802,Portland,90,US,1600016477,93,45.52,-122.68,53.6,1.03
803,Baruun-Urt,0,MN,1600017169,58,46.68,113.28,44.98,8.46
804,Tautira,20,PF,1600016471,73,-17.73,-149.15,75.2,3.36
805,Mahébourg,75,MU,1600017170,83,-20.41,57.7,71.6,10.29
806,Ashtian,0,IR,1600017170,28,34.52,50.0,64.67,10.74
807,Berekum,82,GH,1600017171,95,7.45,-2.58,75.13,1.9
808,Deputatsky,97,RU,1600017112,85,69.3,139.9,36.41,2.46
809,Muroto-misakicho,4,JP,1600017171,78,33.28,134.15,77.2,2.48
810,Souillac,75,MU,1600017171,83,-20.52,57.52,71.6,10.29
811,Olafsvik,97,IS,1600016635,66,64.89,-23.71,47.32,10.98
812,Iqaluit,90,CA,1600017172,80,63.75,-68.51,39.2,3.36
813,Piranhas,0,BR,1600017172,12,-16.43,-51.82,99.95,7.4
814,Adoni,100,IN,1600017172,90,15.63,77.28,72.95,15.97
815,Volot,16,RU,1600017172,73,57.93,30.7,52.43,9.44
816,Haines Junction,25,CA,1600016748,68,60.75,-137.51,40.62,2.64
817,Lagdo,20,CM,1600017173,58,9.05,13.73,87.8,9.17
818,Udachny,18,RU,1600017173,75,66.42,112.4,42.8,4.47
819,Vardø,75,NO,1600016785,93,70.37,31.11,48.2,9.17
820,Bubaque,0,GW,1600017173,81,11.28,-15.83,81.64,14.5
821,San Quintín,0,MX,1600016770,52,30.48,-115.95,78.06,7.78
822,Jalu,0,LY,1600017174,21,29.03,21.55,93.4,11.07
823,Qeshm,0,IR,1600017175,46,26.96,56.27,91.4,4.7
824,Yangi Marg`ilon,0,UZ,1600016799,48,40.43,71.72,66.2,4.7
825,Severodvinsk,75,RU,1600017175,93,64.56,39.83,51.8,6.71
826,Gao,42,ML,1600017175,13,16.64,1.64,103.82,10.54
827,Fairbanks,1,US,1600017122,75,64.84,-147.72,37.0,2.04
828,Sistranda,75,NO,1600017175,87,63.73,8.83,51.8,19.46
829,Khuzhir,100,RU,1600017176,82,53.19,107.34,48.09,8.5
830,Rundu,0,NA,1600017176,18,-17.93,19.77,73.92,2.3
831,Grindavik,90,IS,1600016790,87,63.84,-22.43,46.4,16.11
832,Turtas,62,RU,1600017176,94,58.94,69.13,47.32,2.44
833,Lockport,1,US,1600017169,64,41.59,-88.06,73.0,5.82
834,Vao,95,NC,1600017177,78,-22.67,167.48,69.3,21.3
835,Nanortalik,0,GL,1600017177,67,60.14,-45.24,40.01,8.21
836,Padang,92,ID,1600017035,72,-0.95,100.35,77.9,3.44
837,Saint-Joseph,22,RE,1600017177,73,-21.37,55.62,69.8,10.29
838,College,20,US,1600016902,86,64.86,-147.8,37.0,3.36
839,Muros,92,ES,1600016730,44,42.78,-9.06,82.99,5.99
840,St. George's,20,GD,1600017138,75,12.06,-61.75,89.6,16.11
841,Soyo,15,AO,1600017178,77,-6.13,12.37,75.36,10.11
842,Arraial do Cabo,10,BR,1600017127,61,-22.97,-42.03,86.0,23.04
843,Miguel Hidalgo,40,MX,1600017179,56,19.42,-99.2,68.0,9.17
844,Malakal,100,SS,1600017179,96,9.53,31.66,72.45,5.37
845,Srednekolymsk,0,RU,1600017179,74,67.45,153.68,40.48,2.59
846,Atasū,98,KZ,1600016981,28,48.68,71.64,65.62,7.09
847,Daşoguz,0,TM,1600017179,40,41.84,59.97,68.0,6.93
848,Ponta Delgada,20,PT,1600016848,73,37.73,-25.67,73.4,14.99
849,Nuuk,0,GL,1600017097,44,64.18,-51.72,39.2,8.05
850,Waitati,100,NZ,1600017180,75,-45.75,170.57,48.99,15.99
851,Bandar-e Lengeh,0,IR,1600017180,55,26.56,54.88,91.4,7.07
852,Kunshan,78,CN,1600017180,88,31.38,120.95,75.99,4.47
853,Nikolskoye,40,RU,1600017181,66,59.7,30.79,55.99,20.13
854,Kununurra,40,AU,1600017181,83,-15.77,128.73,73.4,2.24
855,Vicuña,20,CL,1600017181,76,-30.03,-70.71,57.2,12.75
856,Priverno,75,IT,1600017181,50,41.47,13.19,84.99,4.0
857,Kaoma,16,ZM,1600017182,23,-14.78,24.8,72.79,2.86
858,Otane,90,NZ,1600016955,84,-39.88,176.63,50.0,5.01
859,Kokoda,84,PG,1600017182,73,-8.88,147.74,71.96,0.72
860,Ocean City,90,US,1600017182,64,39.28,-74.57,82.0,6.93
861,Pilar,75,BR,1600017182,58,-9.6,-35.96,82.4,19.46
862,Fuyu,4,CN,1600017183,92,45.18,124.82,53.55,3.33
863,Mount Isa,0,AU,1600016789,32,-20.73,139.5,69.8,6.93
864,Naze,75,JP,1600017183,100,28.37,129.48,77.0,8.05
865,Antofagasta,20,CL,1600017129,63,-23.65,-70.4,60.8,13.87
866,Dunedin,100,NZ,1600016779,81,-45.87,170.5,50.0,4.0
867,Peniche,92,PT,1600016802,85,39.36,-9.38,75.0,11.99
868,Westport,20,US,1600017184,69,41.14,-73.36,75.99,9.17
869,Mionica,11,BA,1600017184,50,44.87,18.46,82.99,1.12
870,Shelburne,1,CA,1600017075,60,44.08,-80.2,73.4,19.46
871,Kanhangad,75,IN,1600017185,100,12.31,75.11,75.2,2.24
872,Stonewall,20,CA,1600017185,62,50.13,-97.33,55.4,16.11
873,Billings Metropolitan Area,20,US,1600016916,58,45.78,-108.5,63.0,8.05
874,Almuñécar,100,ES,1600017185,63,36.73,-3.69,82.99,5.35
875,Aban,53,RU,1600017186,92,56.67,96.06,45.25,4.9
876,Yelan’-Kolenovskiy,0,RU,1600017186,37,51.16,41.15,61.48,6.38
877,Englehart,90,CA,1600017186,82,47.82,-79.87,68.0,21.92
878,Lufilufi,75,WS,1600017186,100,-13.87,-171.6,75.2,21.21
879,Moerai,9,PF,1600017187,87,-22.43,-151.33,75.25,17.52
880,Imeni Babushkina,93,RU,1600017187,92,59.76,43.13,49.73,9.42
881,Saint-François,0,FR,1600016796,27,46.42,3.91,87.8,6.93
882,Bilibino,88,RU,1600016883,83,68.05,166.44,36.46,6.33
883,Kabanjahe,100,ID,1600017187,96,3.1,98.49,64.76,1.97
884,Amnat Charoen,40,TH,1600017188,76,15.86,104.63,79.57,1.48
885,Kumano,75,JP,1600017188,73,34.34,132.59,69.8,6.93
886,Otjiwarongo,0,NA,1600017188,20,-20.46,16.65,70.2,5.61
887,Tura,100,IN,1600017188,97,25.52,90.22,74.8,5.84
888,Asău,36,RO,1600016826,79,46.43,26.4,66.0,4.12
889,Vila Velha,20,BR,1600016372,58,-20.33,-40.29,82.4,17.22
890,Palana,100,RU,1600017189,89,59.12,159.97,42.76,16.93
891,Brookhaven,27,US,1600017189,76,31.58,-90.44,88.0,6.87
892,Itarema,16,BR,1600016822,52,-2.92,-39.92,85.48,22.44
893,Grand-Santi,1,GF,1600016765,30,4.25,-54.38,98.44,4.52
894,Norman Wells,75,CA,1600017190,77,65.28,-126.83,32.0,2.24
895,Provideniya,100,RU,1600017190,92,64.38,-173.3,43.47,16.91
896,Hofn,90,IS,1600016585,66,64.25,-15.21,48.2,12.75
897,Aksarka,54,RU,1600017190,80,66.56,67.8,45.07,6.73
898,Codrington,14,AU,1600016363,92,-38.27,141.97,47.89,8.57
899,Chipinge,47,ZW,1600017191,63,-20.19,32.62,62.6,5.46
900,Camaná,56,PE,1600017191,63,-16.62,-72.71,65.25,8.9
901,Hambantota,100,LK,1600016845,77,6.12,81.12,80.46,15.88
902,Villa Bruzual,50,VE,1600017191,66,9.33,-69.12,87.67,5.79
903,Afuá,13,BR,1600017192,55,-0.16,-50.39,91.49,6.02
904,Houffalize,47,BE,1600017192,52,50.13,5.79,78.01,1.01
905,São José do Belmonte,54,BR,1600017192,17,-7.86,-38.76,92.89,12.68
906,Siddipet,100,IN,1600017193,89,18.1,78.85,75.76,8.37
907,Buraidah,0,SA,1600017193,16,26.33,43.98,98.6,6.93
908,Puri,20,IN,1600017193,89,19.8,85.85,84.2,4.7
909,Jumla,98,NP,1600016886,68,29.27,82.18,61.72,1.21
910,Tambun,20,ID,1600017193,78,-6.26,107.07,82.99,3.36
911,Goderich,49,CA,1600017087,82,43.75,-81.72,71.01,21.27
912,Mbandaka,100,CD,1600017194,91,0.05,18.26,74.32,1.7
913,Xam Nua,100,LA,1600017194,93,20.42,104.04,68.14,1.63
914,Molina,20,CL,1600017194,71,-35.12,-71.28,62.01,10.29
915,Astoria,90,US,1600016931,93,46.19,-123.83,55.4,3.2
916,Rodrigues Alves,20,BR,1600017195,56,-7.74,-72.65,93.2,4.7
917,Tegul'det,0,RU,1600017195,84,57.31,88.17,45.59,3.33
918,Harper,59,LR,1600016769,86,4.38,-7.72,77.7,13.27
919,Manaus,40,BR,1600016971,62,-3.1,-60.02,93.2,4.7
920,Ishigaki,76,JP,1600017195,73,24.34,124.16,83.12,7.56
921,Takhtamygda,92,RU,1600017196,93,54.1,123.57,52.39,2.8
922,Gravdal,75,NO,1600017196,87,68.12,13.5,50.0,5.82
923,Kautokeino,90,NO,1600017081,77,69.01,23.04,43.68,5.06
924,Shīeli,73,KZ,1600017196,25,44.17,66.75,70.16,6.91
925,Stykkisholmur,97,IS,1600017196,65,65.08,-22.73,47.34,11.23
926,Nyrob,100,RU,1600017197,93,60.73,56.72,49.55,8.63
927,Kholodnyy,1,RU,1600017197,89,62.72,147.95,33.06,1.86
928,Pevek,27,RU,1600017197,83,69.7,170.31,41.85,9.89
929,Ixtapa,5,MX,1600017197,74,20.7,-105.2,87.01,6.93
930,Moree,0,AU,1600017198,66,-29.47,149.85,53.6,9.17
931,Ugoofaaru,100,MV,1600016839,78,5.67,73.0,82.69,10.83
932,Ves'yegonsk,12,RU,1600017198,74,58.66,37.26,51.55,9.93
933,Blackwater,0,AU,1600017198,88,-23.58,148.88,60.12,8.19
934,Teahupoo,20,PF,1600017198,73,-17.83,-149.27,75.2,3.36
935,Hamilton,40,US,1600016731,74,39.18,-84.53,81.0,5.82
936,La Ferté-Bernard,0,FR,1600017199,26,48.19,0.65,84.2,5.82
937,Simao,100,CN,1600017199,94,22.79,100.97,65.62,1.97
938,Praia,20,CV,1600016576,75,14.92,-23.51,81.86,12.33
939,Mossamedes,45,AO,1600017199,83,-15.2,12.15,64.38,10.87
940,Gemeente Wageningen,34,NL,1600017200,64,51.97,5.67,75.0,8.05
941,Lorengau,66,PG,1600017200,82,-2.02,147.27,81.88,12.75
942,Storforshei,75,NO,1600017200,87,66.4,14.52,48.2,13.87
943,Inhambane,0,MZ,1600017200,76,-23.86,35.38,70.7,9.13
944,Lata,66,PT,1600016644,50,40.16,-8.33,82.0,8.01
945,Iquique,20,CL,1600017055,59,-20.22,-70.14,64.4,12.75
946,Ongandjera,2,NA,1600017201,17,-17.88,15.07,75.92,5.64
947,Manggar,100,ID,1600017201,81,-2.88,108.27,79.97,6.82
948,Swan Hill,0,AU,1600016749,94,-35.34,143.55,43.47,5.75
949,Guerrero Negro,0,MX,1600017201,45,27.98,-114.06,81.25,7.2
950,Kasongo-Lunda,59,CD,1600017202,31,-6.47,16.82,88.18,0.78
951,Port Hedland,68,AU,1600017069,69,-20.32,118.57,75.2,8.05
952,Cayenne,40,GF,1600016714,52,4.93,-52.33,91.4,13.87
953,Nishihara,75,JP,1600017073,88,26.18,127.76,80.6,5.82
954,Montepuez,79,MZ,1600017202,49,-13.13,39.0,79.52,11.54
955,Acará,21,BR,1600017203,34,-1.96,-48.2,98.08,5.28
956,Louiseville,90,CA,1600016998,77,46.26,-72.94,62.01,5.82
957,Prokop'yevsk,0,RU,1600017203,72,53.91,86.72,44.8,2.35
958,Tezu,93,IN,1600017203,80,27.92,96.17,75.6,1.9
959,Kakching,100,IN,1600017203,92,24.48,93.98,71.22,1.32
960,Port Hueneme,75,US,1600016863,88,34.15,-119.2,62.6,5.91
961,Juradó,81,CO,1600017204,72,7.11,-77.76,83.05,6.35
962,Road Town,40,VG,1600017204,74,18.42,-64.62,87.8,8.05
963,Ambon City,96,ID,1600017204,81,-3.7,128.18,78.22,12.35
964,Manaíra,70,BR,1600017204,20,-7.71,-38.15,89.71,9.86
965,Avenal,0,US,1600017033,39,36.0,-120.13,82.0,3.47
966,Maltahöhe,0,NA,1600017205,21,-24.83,16.98,70.3,15.88
967,Assiut,0,EG,1600017205,32,27.18,31.18,93.2,13.87
968,George Town,20,MY,1600017205,83,5.41,100.34,80.6,2.98
969,Sakakah,20,SA,1600016945,12,29.97,40.21,100.4,13.73
970,Takoradze,27,GH,1600016718,83,4.88,-1.76,78.21,10.31
971,Krasnoshchekovo,12,RU,1600017206,60,51.67,82.73,51.67,4.32
972,Smithers,90,CA,1600017206,100,54.78,-127.17,48.2,3.44
973,Businga,41,CD,1600017206,82,3.33,20.88,75.88,1.61
974,Tarko-Sale,49,RU,1600016803,89,64.92,77.78,46.0,10.0
975,Baoshan,100,CN,1600017172,93,46.56,131.42,55.99,2.95
976,‘Āhuimanu,20,US,1600016644,69,21.44,-157.84,77.0,9.17
977,Arlit,4,NE,1600017207,7,18.74,7.39,106.07,19.06
978,Salalah,40,OM,1600016547,83,17.02,54.09,82.4,6.93
979,Puerto Escondido,75,MX,1600017087,65,15.85,-97.07,82.4,2.33
980,Omsukchan,97,RU,1600017207,81,62.53,155.8,39.88,6.58
981,Krasnosel'kup,100,RU,1600017208,91,65.7,82.47,52.65,9.8
982,Nizwá,10,OM,1600017208,24,22.93,57.53,91.31,8.59
983,Goundam,38,ML,1600017208,16,16.41,-3.67,104.31,4.99
984,Roald,75,NO,1600017209,71,62.58,6.13,53.6,17.22
985,Havelock,90,US,1600017209,78,34.88,-76.9,84.0,10.29
986,Sungai Penuh,99,ID,1600017209,95,-2.08,101.38,65.3,1.43
987,La Rioja,16,ES,1600017209,22,42.25,-2.5,91.4,12.75
988,Manukan,83,PH,1600017209,81,8.53,123.1,79.63,0.72
989,Hasaki,75,JP,1600017152,100,35.73,140.83,70.0,3.36
990,Sisimiut,0,GL,1600017210,73,66.94,-53.67,37.36,1.95
991,Jasper,1,US,1600017210,68,37.2,-94.35,73.99,4.7
992,Semīrom,39,IR,1600017210,36,31.42,51.57,57.11,8.37
993,Mahbūbnagar,100,IN,1600017211,91,16.73,77.98,74.44,7.72
994,Pangnirtung,20,CA,1600017211,65,66.15,-65.71,41.0,5.82
995,Kysyl-Syr,7,RU,1600017211,95,63.9,122.76,41.4,6.44
996,Semnan,14,IR,1600017211,45,35.57,53.4,70.97,10.07
997,Zaysan,11,KZ,1600017211,39,47.47,84.87,54.01,7.23
998,Vernon,68,CA,1600016927,53,50.26,-119.27,63.0,1.45
999,Karatsu,22,JP,1600017212,57,33.44,129.97,70.0,3.0
1000,San Andrés,75,CO,1600017212,94,12.58,-81.7,78.8,6.93
1001,Waitakere,97,NZ,1600017212,66,-36.92,174.66,57.0,17.22
1002,Coquimbo,20,CL,1600016873,76,-29.95,-71.34,57.2,12.75
1003,Puro,100,PH,1600017213,80,12.48,123.38,81.19,5.59
1004,Skjervøy,36,NO,1600017213,81,70.03,20.97,50.0,5.82
1005,Uxbridge,94,US,1600017213,63,42.08,-71.63,73.99,8.25
1006,Yokadouma,94,CM,1600017213,80,3.52,15.05,76.03,1.88
1007,Punta Alta,0,AR,1600017214,35,-38.88,-62.07,58.69,16.64
1008,Sola,100,VU,1600017214,87,-13.88,167.55,78.31,23.24
1009,Ubari,0,LY,1600017214,18,26.59,12.78,93.94,10.71
1010,Smolenskaya,28,RU,1600017214,50,44.79,38.8,79.0,6.71
1011,Grand Gaube,88,MU,1600017214,82,-20.01,57.66,69.01,1.99
1012,Acapulco de Juárez,40,MX,1600017215,70,16.86,-99.89,86.0,5.82
1013,Morvi,98,IN,1600017215,10,22.82,70.83,84.0,8.86
1014,Povenets,100,RU,1600017215,82,62.85,34.83,51.6,19.84
1015,Tuyen Quang,100,VN,1600017118,94,21.82,105.22,78.01,1.14
1016,Brønnøysund,75,NO,1600017215,87,65.46,12.2,50.0,20.8
1017,Montabaur,88,DE,1600017216,50,50.43,7.83,75.0,1.3
1018,Havre-St-Pierre,90,CA,1600017216,76,50.23,-63.6,57.2,4.7
1019,Sibu,40,MY,1600017216,94,2.3,111.82,77.0,2.24
1020,Denpasar,20,ID,1600017216,88,-8.65,115.22,78.8,5.82
1021,Vic,0,ES,1600017217,53,41.93,2.25,84.0,1.01
1022,Kavaratti,100,IN,1600017217,80,10.57,72.64,81.86,15.66
1023,High Prairie,100,CA,1600017217,67,55.43,-116.49,47.8,5.75
1024,Urusha,95,RU,1600017217,95,54.05,122.9,50.59,2.98
1025,North Bend,90,US,1600017218,100,43.41,-124.22,54.0,3.6
1026,Katobu,99,ID,1600017218,90,-4.94,122.53,71.82,2.3
1027,Yamada,100,JP,1600017218,90,39.47,141.95,64.17,9.62
1028,Gerāsh,20,IR,1600017218,16,27.67,54.14,93.2,6.93
1029,Broome,75,US,1600017219,68,42.25,-75.83,71.01,13.87
1030,Vredendal,2,ZA,1600017219,61,-31.67,18.5,56.1,10.22
1031,Emerald,0,AU,1600016956,72,-23.53,148.17,64.4,8.05
1032,Sorong,94,ID,1600017219,88,-0.88,131.25,78.64,18.01
1033,Price,1,US,1600017219,24,39.6,-110.81,66.2,5.95
1034,Kommunar,40,RU,1600017220,66,59.62,30.39,55.99,20.13
1035,Guisa,40,CU,1600017220,52,20.25,-76.54,89.6,10.29
1036,Canavieiras,8,BR,1600017220,73,-15.68,-38.95,77.52,10.0
1037,Hearst,100,CA,1600017221,72,49.68,-83.67,50.95,12.46
1038,Oktyabr'skiy,74,RU,1600017221,78,54.48,53.47,51.12,6.31
1039,Valparaíso,0,CL,1600017221,45,-33.04,-71.63,66.2,10.29
1040,Copiapó,90,CL,1600017073,82,-27.37,-70.33,55.4,1.12
1041,Seoul,1,KR,1600017066,93,37.57,126.98,66.2,3.51
1042,Atar,3,MR,1600017222,11,20.52,-13.05,107.4,11.05
1043,Ewo,89,CG,1600017095,77,-0.87,14.82,78.76,3.74
1044,Shache,0,CN,1600017222,25,38.42,77.24,68.23,7.23
1045,Vale,0,GE,1600017222,83,41.62,42.87,77.0,9.17
1046,Smyshlyayevka,0,RU,1600017223,62,53.24,50.39,57.2,6.71
1047,Coolum Beach,7,AU,1600017223,97,-26.53,153.1,57.99,2.48
1048,Islamkot,60,PK,1600017223,51,24.7,70.18,92.57,8.39
1049,Sumbawanga,44,TZ,1600017223,51,-7.97,31.62,63.88,3.62
1050,Fallon,1,US,1600017223,16,39.47,-118.78,75.99,4.7
1051,Chu,0,KZ,1600017224,39,43.6,73.76,65.19,8.37
1052,Payson,1,US,1600017224,34,40.04,-111.73,75.99,5.82
1053,Yumen,0,CN,1600017224,40,40.28,97.2,50.99,5.84
1054,Merrill,90,US,1600017106,82,45.18,-89.68,60.8,9.17
1055,Khovd,0,MN,1600017226,50,48.01,91.64,46.53,1.3
1056,Barra de Tecoanapa,54,MX,1600016899,63,16.52,-98.75,86.86,6.91
1057,Nantucket,1,US,1600017226,68,41.28,-70.1,69.8,16.11
1058,Necochea,88,AR,1600017226,65,-38.55,-58.74,54.0,11.01
1059,Kosh-Agach,0,RU,1600017227,74,50.0,88.67,36.23,1.59
1060,Saýat,0,TM,1600017227,35,38.78,63.88,71.6,6.93
1061,Santa Cruz de la Sierra,28,BO,1600016882,21,-17.8,-63.17,100.69,17.74
1062,Abhā,20,SA,1600017227,60,18.22,42.51,77.0,5.82
1063,Tigil',100,RU,1600017227,85,57.8,158.67,43.32,10.49
1064,Altay,7,CN,1600017054,44,47.87,88.12,50.2,4.47
1065,Trogir,0,HR,1600017228,29,43.51,16.25,87.8,16.11
1066,Northam,0,GB,1600016877,86,51.03,-4.22,70.0,1.99
1067,Kenai,1,US,1600017228,92,60.55,-151.26,30.2,3.36
1068,Provincia di Taranto,0,IT,1600017229,40,40.62,17.25,87.8,16.11
1069,Sur,62,OM,1600017229,66,22.57,59.53,81.45,8.43
1070,Chokurdakh,57,RU,1600017229,72,70.63,147.92,43.21,3.4
1071,Lavrentiya,100,RU,1600016840,92,65.58,-171.0,42.98,8.16
1072,Bengkulu,57,ID,1600017019,89,-3.8,102.27,76.35,6.91
1073,Kolyvan',70,RU,1600017230,87,55.31,82.74,48.2,2.24
1074,Itoman,75,JP,1600017230,88,26.12,127.67,80.6,5.82
1075,Lake City,40,US,1600017230,83,30.19,-82.64,87.01,6.93
1076,Brae,75,GB,1600017230,93,60.4,-1.35,51.8,1.12
1077,Kayerkan,40,RU,1600017230,82,69.35,87.76,55.4,15.66
1078,Vostok,98,RU,1600017231,69,46.49,135.88,42.39,3.62
1079,Poquoson,1,US,1600017144,83,37.12,-76.35,82.0,8.05
1080,Ulaanbaatar,40,MN,1600016891,80,47.91,106.88,39.2,6.71
1081,Amalāpuram,92,IN,1600017231,94,16.58,82.02,78.55,1.97
1082,Huarmey,40,PE,1600017232,66,-10.07,-78.15,67.55,11.32
1083,Beyneu,0,KZ,1600017232,36,45.32,55.2,73.53,12.33
1084,Paine,4,CL,1600017232,54,-33.82,-70.75,64.4,11.41
1085,San Matías,0,BO,1600017066,9,-16.37,-58.4,108.81,8.61
1086,Akureyri,75,IS,1600017232,81,65.68,-18.09,44.6,5.82
1087,Cabo San Lucas,20,MX,1600017215,74,22.89,-109.91,87.01,11.41
1088,Tulnici,16,RO,1600017233,47,45.92,26.67,77.0,4.7
1089,Nizhniy Baskunchak,0,RU,1600017233,36,48.22,46.83,64.63,5.39
1090,Abalak,55,RU,1600017233,95,58.13,68.59,48.42,2.55
1091,Dukat,98,RU,1600017234,84,62.55,155.55,37.51,5.68
1092,Hong Kong,93,HK,1600017114,95,22.29,114.16,82.99,4.0
1093,Odda,100,NO,1600017234,93,60.07,6.55,53.01,4.41
1094,Myatlevo,40,RU,1600017234,87,54.9,35.68,60.8,8.95
1095,Titay,100,PH,1600017234,86,7.81,122.53,76.39,1.74
1096,Miramar,40,US,1600017235,74,25.99,-80.23,88.0,12.75
1097,Inverell,18,AU,1600017235,89,-29.78,151.12,48.99,3.11
1098,Nauta,0,PE,1600017235,35,-4.51,-73.58,98.37,3.89
1099,Nuquí,75,CO,1600017235,78,5.71,-77.27,82.4,3.36
1100,Dingle,100,PH,1600017236,91,11.0,122.67,77.05,4.74
1101,Contamana,56,PE,1600017236,39,-7.33,-75.02,96.76,2.17
1102,Saldanha,89,ZA,1600017236,63,-33.01,17.94,60.8,11.41
1103,Lerwick,75,GB,1600017236,93,60.15,-1.15,51.8,1.12
1104,Rockland,89,US,1600017236,75,41.17,-74.05,75.0,9.57
1105,Mareeba,75,AU,1600016653,88,-17.0,145.43,68.0,9.17
1106,Grão Mogol,0,BR,1600017237,26,-16.56,-42.89,84.34,9.89
1107,Labuhan,98,ID,1600017237,75,-6.88,112.21,77.72,6.82
1108,Saint Anthony,1,US,1600017083,72,45.02,-93.22,66.99,5.79
1109,Yakeshi,52,CN,1600017238,91,49.28,120.73,49.48,7.61
1110,Cascais,20,PT,1600017238,78,38.7,-9.42,73.4,12.75
1111,Celestún,22,MX,1600017238,70,20.87,-90.4,85.41,9.8
1112,Ružomberok,95,SK,1600017239,57,49.07,19.31,75.2,1.12
1113,Bowen,40,AU,1600017065,93,-20.02,148.23,62.6,6.93
1114,Broken Hill,0,AU,1600017239,58,-31.95,141.43,53.6,18.34
1115,Nur-Sultan,100,KZ,1600017239,36,51.18,71.45,64.4,8.95
1116,Kuching,40,MY,1600017239,100,1.55,110.33,75.2,4.7
1117,Mahibadhoo,100,MV,1600017240,77,3.78,72.97,82.62,9.93
1118,Ibrā’,32,OM,1600017240,30,22.69,58.53,86.72,5.82
1119,Molokovo,18,RU,1600017240,77,58.17,36.76,50.83,10.8
1120,Bandarbeyla,86,SO,1600017240,74,9.49,50.81,79.81,29.48
1121,Lakewood,0,US,1600017241,29,39.7,-105.08,79.0,1.01
1122,Manokwari,100,ID,1600016877,78,-0.87,134.08,79.2,4.18
1123,Herat Province,0,AF,1600017241,20,34.5,62.0,73.4,12.75
1124,Imbituba,53,BR,1600016853,57,-28.24,-48.67,80.6,14.99
1125,Yeppoon,90,AU,1600017242,82,-23.13,150.73,66.2,6.93
1126,Walvis Bay,2,NA,1600016798,56,-22.96,14.51,68.0,18.34
1127,Sernovodskoye,20,RU,1600017242,73,43.32,45.16,71.6,13.42
1128,Aykhal,31,RU,1600017242,75,66.0,111.5,42.8,4.47
1129,Lar,100,IN,1600017242,79,26.2,83.97,84.31,1.19
1130,Mitú,8,CO,1600017204,45,1.2,-70.17,93.02,4.12
1131,Puerto del Rosario,20,ES,1600017243,73,28.5,-13.86,77.0,5.82
1132,Anadyr,75,RU,1600017244,93,64.75,177.48,44.6,24.61
1133,Lundazi,71,ZM,1600017244,43,-12.29,33.18,71.1,9.89
1134,Paamiut,0,GL,1600016725,69,61.99,-49.67,37.02,6.49
1135,Port Macquarie,39,AU,1600017244,97,-31.43,152.92,53.01,4.5
1136,Chapayevka,0,UA,1600017244,35,47.47,36.35,69.26,3.76
1137,Whyalla,75,AU,1600017245,87,-33.03,137.58,50.0,5.82
1138,Evansville,40,US,1600016835,61,37.97,-87.56,81.0,4.7
1139,Kemin,0,KG,1600017245,35,42.78,75.69,59.29,4.65
1140,Ulaangom,0,MN,1600017245,61,49.98,92.07,44.17,0.83
1141,Kilindoni,32,TZ,1600017246,82,-7.91,39.67,77.67,14.92
1142,Quatre Cocos,75,MU,1600017246,83,-20.21,57.76,71.6,10.29
1143,Isiro,95,CD,1600017246,94,2.77,27.62,69.48,1.63
1144,Manjacaze,3,MZ,1600017246,73,-24.71,33.88,70.36,9.22
1145,Talara,8,PE,1600017246,72,-4.58,-81.27,67.96,17.9
1146,Shar,0,KZ,1600017247,33,49.59,81.05,58.48,3.94
1147,Champaign,40,US,1600016650,73,40.13,-88.2,75.0,8.05
1148,Ozark,6,US,1600017247,70,37.02,-93.21,75.0,8.61
1149,Racibórz,58,PL,1600017193,82,50.09,18.22,71.01,2.71
1150,Changji,89,CN,1600017247,25,44.02,87.32,66.2,4.47
1151,Whitehorse,75,CA,1600017135,86,60.72,-135.05,37.99,3.36
1152,Yabrūd,0,SY,1600017248,33,33.97,36.66,86.0,14.99
1153,Shaoyang,100,CN,1600017248,86,27.23,111.45,67.12,2.84
1154,La Libertad,75,EC,1600017248,78,-2.23,-80.9,73.4,6.93
1155,Namatanai,12,PG,1600016977,82,-3.67,152.43,79.77,8.86
1156,Okhotsk,11,RU,1600017249,69,59.38,143.3,51.8,2.3
1157,Santa Luzia,0,BR,1600017249,28,-19.77,-43.85,84.2,9.17
1158,Henties Bay,0,NA,1600017249,84,-22.12,14.28,59.0,5.99
1159,Al Bardīyah,0,LY,1600017250,69,31.76,25.09,76.71,8.75
1160,Monrovia,70,LR,1600016999,82,6.3,-10.8,79.88,12.55
1161,Vengurla,90,IN,1600017250,100,15.87,73.63,77.0,2.24
1162,Pokhara,99,NP,1600017250,82,28.23,83.98,72.59,2.46
1163,Miyako,100,JP,1600017250,89,39.64,141.95,63.75,9.89
1164,Cravo Norte,65,CO,1600017251,54,6.3,-70.2,90.93,5.66
1165,Kropotkin,0,RU,1600017251,36,45.44,40.58,75.07,13.2
1166,Isangel,98,VU,1600017251,82,-19.55,169.27,71.02,12.95
1167,Shizuishan,21,CN,1600017251,49,39.23,106.77,62.02,2.06
1168,Katangli,0,RU,1600017124,91,51.71,143.23,48.22,6.69
1169,Punta Arenas,40,CL,1600016984,61,-53.15,-70.92,46.4,16.11
1170,Conceição do Araguaia,69,BR,1600017124,12,-8.26,-49.26,106.86,4.07
1171,Albany,58,US,1600017096,64,42.6,-73.97,73.99,1.01
1172,Bluff,100,NZ,1600017036,98,-46.6,168.33,46.99,5.99
1173,Ilulissat,5,GL,1600016366,46,69.22,-51.1,30.2,11.41
1174,West Wendover,1,US,1600017125,23,40.74,-114.07,62.6,3.36
1175,Kapaa,90,US,1600017125,78,22.08,-159.32,78.8,8.05
1176,Cape Town,75,ZA,1600017125,82,-33.93,18.42,55.99,18.34
1177,Biak,95,ID,1600017051,76,-0.91,122.88,75.38,6.89
1178,Port Blair,89,IN,1600017125,79,11.67,92.75,82.36,13.13
1179,Bambous Virieux,40,MU,1600016698,78,-20.34,57.76,71.6,6.93
1180,Gijang,75,KR,1600017126,82,35.24,129.21,68.0,1.12
1181,Aklavik,75,CA,1600017108,76,68.22,-135.01,32.0,3.36
1182,Misratah,19,LY,1600017054,74,32.38,15.09,80.82,13.94
1183,Laas,5,IT,1600017126,68,46.62,10.7,73.0,4.7
1184,Kāmākhyānagar,92,IN,1600017127,90,20.93,85.55,79.47,4.09
1185,Eastlake,90,US,1600017127,68,41.65,-81.45,73.99,14.99
1186,Laguna,90,US,1600016612,77,38.42,-121.42,66.99,3.24
1187,San Cristobal,40,VE,1600017127,49,7.77,-72.22,89.6,12.75
1188,Levice,61,SK,1600017128,59,48.22,18.61,80.01,6.38
1189,Innisfail,83,AU,1600017128,88,-17.53,146.03,69.12,10.87
1190,Busselton,96,AU,1600017128,68,-33.65,115.33,57.0,9.78
1191,Faya,20,SA,1600017128,60,18.39,42.45,77.0,5.82
1192,Esperance,0,AU,1600017063,100,-33.87,121.9,51.8,8.05
1193,Husavik,75,IS,1600016971,81,66.04,-17.34,44.6,9.17
1194,Suicheng,57,CN,1600017129,95,33.9,117.93,66.78,4.72
1195,Khatanga,8,RU,1600016984,76,71.97,102.5,48.4,5.59
1196,Hermanus,67,ZA,1600016976,83,-34.42,19.23,54.0,5.99
1197,Dikson,99,RU,1600017129,89,73.51,80.55,47.44,15.79
1198,Cherskiy,0,RU,1600017129,80,68.75,161.3,40.15,6.6
1199,Ushuaia,75,AR,1600016958,75,-54.8,-68.3,42.8,14.99
1200,Mataura,91,NZ,1600017130,98,-46.19,168.86,46.99,5.99
1201,Cidreira,28,BR,1600017069,82,-30.18,-50.21,69.26,8.19
1202,Ponta do Sol,40,PT,1600017130,88,32.67,-17.1,73.4,13.87
1203,Khandyga,81,RU,1600017130,63,62.67,135.6,52.84,5.26
1204,Vestmannaeyjar,20,IS,1600016585,87,63.44,-20.27,50.0,18.34
1205,Upernavik,99,GL,1600016784,97,72.79,-56.15,31.06,10.0
1206,Tsimmerbude,20,RU,1600017131,77,54.67,20.13,60.8,11.18
1207,Castro,0,BR,1600017131,30,-24.79,-50.01,85.39,9.28
1208,Ambilobe,39,MG,1600017131,73,-13.2,49.05,74.3,4.54
1209,Saskylakh,99,RU,1600017132,76,71.92,114.08,46.85,3.04
1210,Wanaka,100,NZ,1600017132,81,-44.7,169.15,45.73,7.45
1211,Port Alfred,44,ZA,1600017132,62,-33.59,26.89,62.02,13.85
1212,Pisco,1,PE,1600017132,72,-13.7,-76.22,66.2,10.29
1213,Sitka,1,US,1600016643,70,57.05,-135.33,48.2,4.27
1214,Praia da Vitória,20,PT,1600017133,78,38.73,-27.07,78.01,10.8
1215,Tuatapere,100,NZ,1600017133,98,-46.13,167.68,46.99,5.99
1216,Kahului,1,US,1600017006,77,20.89,-156.47,73.99,3.36
1217,Buenos Aires,40,AR,1600016962,82,-34.61,-58.38,64.99,9.17
1218,Beringovskiy,100,RU,1600017134,97,63.05,179.32,48.58,12.68
1219,Boa Vista,20,BR,1600017134,44,2.82,-60.67,93.2,8.05
1220,Ancud,16,CL,1600017134,60,-41.87,-73.82,49.87,6.04
1221,Leshan,100,CN,1600017134,91,29.56,103.76,67.06,2.19
1222,Novorzhev,36,RU,1600017135,71,57.03,29.33,52.56,8.03
1223,Kamyshin,0,RU,1600017135,42,50.1,45.42,59.72,4.7
1224,Kimbe,74,PG,1600017135,85,-5.55,150.14,76.23,5.86
1225,Leer,100,SS,1600016754,98,8.3,30.14,70.68,2.86
1226,Puerto Ayora,40,EC,1600017135,64,-0.74,-90.35,73.4,18.34
1227,San Patricio,75,MX,1600016690,75,19.22,-104.7,89.6,6.93
1228,Bathsheba,20,BB,1600016711,70,13.22,-59.52,89.6,11.41
1229,Carnarvon,0,AU,1600017136,93,-24.87,113.63,66.2,12.75
1230,Xinmin,0,CN,1600017137,93,41.99,122.83,60.8,2.24
1231,Vaini,75,TO,1600017137,72,-21.2,-175.2,68.0,11.41
1232,East London,75,ZA,1600016709,72,-33.02,27.91,60.8,19.46
1233,Faanui,40,PF,1600016632,78,-16.48,-151.75,77.86,11.18
1234,Barrow,90,US,1600017137,93,71.29,-156.79,39.2,17.22
1235,Turka,87,UA,1600017138,90,49.15,23.03,69.01,5.01
1236,Ostrovnoy,98,RU,1600017093,93,68.05,39.51,47.01,6.24
1237,Comodoro Rivadavia,20,AR,1600017138,33,-45.87,-67.5,57.2,11.41
1238,Pochutla,90,MX,1600017138,70,15.74,-96.47,90.0,4.54
1239,Plettenberg Bay,17,ZA,1600017138,65,-34.05,23.37,58.1,6.4
1240,Marystown,100,CA,1600017139,100,47.17,-55.15,62.01,9.89
1241,Ribeira Grande,75,PT,1600017139,78,38.52,-28.7,75.2,13.87
1242,Gucheng,99,CN,1600017139,58,35.91,111.32,71.19,3.65
1243,Meulaboh,95,ID,1600017139,85,4.14,96.13,78.12,2.73
1244,Bredasdorp,24,ZA,1600017140,58,-34.53,20.04,57.2,18.34
1245,Airai,72,TL,1600017140,77,-8.93,125.41,53.94,2.93
1246,Clarksburg,90,US,1600017140,69,39.28,-80.34,77.0,8.05
1247,Conde,75,BR,1600017140,58,-7.26,-34.91,84.2,16.11
1248,Jalingo,73,NG,1600017140,87,8.88,11.37,78.42,3.42
1249,Rikitea,22,PF,1600016978,81,-23.12,-134.97,72.64,11.79
1250,Tazmalt,40,DZ,1600017141,74,36.39,4.4,78.8,4.7
1251,Agadez,0,NE,1600016957,9,19.75,10.25,100.65,8.48
1252,Atuona,37,PF,1600017141,77,-9.8,-139.03,78.1,15.5
1253,Lebu,0,CL,1600017142,64,-37.62,-73.65,53.2,14.5
1254,Mar del Plata,4,AR,1600017142,39,-38.0,-57.56,62.6,6.93
1255,Tessalit,33,ML,1600017142,9,20.2,1.01,105.64,16.93
1256,São João da Barra,0,BR,1600016561,54,-21.64,-41.05,82.4,20.8
1257,Kailua,20,US,1600016681,69,21.4,-157.74,77.0,9.17
1258,Susanville,1,US,1600017143,25,40.42,-120.65,66.99,2.46
1259,Teguise,20,ES,1600017143,83,29.06,-13.56,75.2,5.82
1260,Khiri Mat,100,TH,1600017143,79,16.83,99.8,80.28,2.06
1261,Port Lincoln,1,AU,1600017049,90,-34.73,135.87,53.08,7.23
1262,Prince Rupert,75,CA,1600017144,93,54.32,-130.32,53.6,2.35
1263,New Norfolk,39,AU,1600017144,77,-42.78,147.06,46.0,3.0
1264,Tasiilaq,79,GL,1600017144,60,65.61,-37.64,39.2,3.36
1265,Butaritari,57,KI,1600017144,71,3.07,172.79,82.67,14.32
1266,Sibolga,100,ID,1600017144,75,1.74,98.78,77.99,1.74
1267,San Donà di Piave,0,IT,1600017145,54,45.63,12.57,84.0,3.36
1268,Kloulklubed,75,PW,1600017145,94,7.04,134.26,77.0,11.63
1269,Ukiah,75,US,1600017145,62,39.15,-123.21,75.0,2.59
1270,Taoudenni,52,ML,1600017145,8,22.68,-3.98,112.71,9.98
1271,Tiksi,28,RU,1600017146,85,71.69,128.87,40.51,1.25
1272,Vila Franca do Campo,20,PT,1600016651,73,37.72,-25.43,73.4,14.99
1273,Rocha,97,UY,1600017146,83,-34.48,-54.33,60.62,6.8
1274,Rørvik,75,NO,1600017146,71,64.86,11.24,51.8,20.8
1275,Mizdah,85,LY,1600017146,43,31.45,12.98,80.82,16.04
1276,Galveston,20,US,1600017046,70,29.37,-94.97,87.8,13.87
1277,Fort Nelson,75,CA,1600016684,86,58.81,-122.7,39.2,8.05
1278,George Town,20,MY,1600016979,83,5.41,100.34,80.6,2.98
1279,Saint Paul Harbor,1,US,1600016737,80,57.79,-152.41,39.2,6.93
1280,Kavieng,16,PG,1600017147,77,-2.57,150.8,82.74,12.59
1281,Tena,40,EC,1600017147,61,-0.98,-77.82,78.8,4.7
1282,Gachsaran,34,IR,1600017148,26,30.36,50.8,91.4,1.19
1283,Soverato Marina,97,IT,1600017148,74,38.69,16.55,82.4,5.82
1284,Port-Gentil,40,GA,1600016948,74,-0.72,8.78,80.6,16.15
1285,Yellowknife,75,CA,1600016932,69,62.46,-114.35,35.6,12.75
1286,Los Llanos de Aridane,20,ES,1600017148,69,28.66,-17.92,78.8,4.7
1287,Bethel,90,US,1600017149,68,41.37,-73.41,73.0,9.17
1288,Havøysund,75,NO,1600016909,81,71.0,24.66,50.0,8.05
1289,Katsuura,75,JP,1600017149,94,35.13,140.3,71.6,9.17
1290,Hilo,71,US,1600016986,84,19.73,-155.09,71.01,3.0
1291,Muisne,75,EC,1600017149,78,0.6,-80.03,82.4,4.7
1292,Hoquiam,90,US,1600017149,100,46.98,-123.89,57.0,6.93
1293,Yulara,0,AU,1600017150,46,-25.24,130.99,69.8,14.99
1294,Berdigestyakh,100,RU,1600017150,90,62.1,126.7,49.28,9.01
1295,Saint George,1,US,1600016973,15,37.1,-113.58,82.99,3.36
1296,Parvatsar,0,IN,1600016687,37,26.88,74.77,86.81,6.04
1297,Torbay,90,CA,1600017150,51,47.67,-52.73,62.01,11.41
1298,Talnakh,40,RU,1600017000,82,69.49,88.4,55.4,15.66
1299,Petropavlovsk-Kamchatskiy,1,RU,1600016635,86,53.05,158.65,39.2,13.42
1300,Kaitangata,83,NZ,1600016860,93,-46.28,169.85,48.99,1.01
1301,Shingū,50,JP,1600016758,83,33.73,135.98,70.52,5.86
1302,Avarua,94,CK,1600017105,78,-21.21,-159.78,73.4,9.17
1303,Tuktoyaktuk,90,CA,1600017151,84,69.45,-133.04,35.6,14.99
1304,Moshi,20,TZ,1600016951,42,-3.35,37.33,80.6,5.82
1305,Den Helder,19,NL,1600016963,77,52.96,4.76,66.2,13.87
1306,Karwar,100,IN,1600017152,85,14.8,74.13,78.35,6.46
1307,Geraldton,0,AU,1600017152,87,-28.77,114.6,53.6,9.17
1308,Atherton,0,GB,1600017152,51,53.52,-2.49,75.99,3.0
1309,Katherine,75,AU,1600017153,38,-14.47,132.27,75.2,2.24
1310,Amahai,100,ID,1600017153,85,-3.33,128.92,77.11,7.11
1311,Mehamn,90,NO,1600017119,93,71.04,27.85,48.2,3.36
1312,Hobart,40,AU,1600017022,61,-42.88,147.33,46.4,13.87
1313,Qaanaaq,54,GL,1600017153,81,77.48,-69.36,24.24,8.59
1314,Constitución,0,CL,1600017154,47,-35.33,-72.42,60.4,14.54
1315,Rome,90,US,1600016884,72,43.21,-75.46,66.2,4.7
1316,Kumul,100,CN,1600017154,20,42.8,93.45,68.09,4.07
1317,Salinópolis,91,BR,1600017154,75,-0.61,-47.36,83.1,12.93
1318,Lompoc,90,US,1600016854,100,34.64,-120.46,53.6,8.72
1319,Tual,57,ID,1600016916,80,-5.67,132.75,78.6,20.04
1320,Thompson,75,CA,1600017155,75,55.74,-97.86,42.8,8.05
1321,Camacha,40,PT,1600017155,73,33.08,-16.33,77.0,14.99
1322,Elko,1,US,1600017155,27,41.0,-115.5,70.0,3.36
1323,Gigmoto,61,PH,1600017156,78,13.78,124.39,81.05,4.34
1324,Rudnogorsk,100,RU,1600017156,86,57.26,103.75,46.36,8.32
1325,Kalawit,99,PH,1600017156,83,8.07,122.52,78.93,1.54
1326,Mount Gambier,90,AU,1600016699,93,-37.83,140.77,51.8,5.82
1327,Riviere-au-Renard,75,CA,1600017156,59,49.0,-64.4,62.6,9.17
1328,Amapá,6,BR,1600016665,34,1.0,-52.0,97.45,4.5
1329,Jamestown,90,US,1600017157,93,42.1,-79.24,66.0,6.93
1330,Chicama,13,PE,1600017157,53,-7.84,-79.15,73.71,11.32
1331,Ust'-Koksa,9,RU,1600017157,70,50.27,85.61,39.63,0.67
1332,Leningradskiy,67,RU,1600017157,85,69.38,178.42,38.07,2.59
1333,Zhigansk,77,RU,1600017158,91,66.77,123.37,45.03,14.92
1334,Longyearbyen,75,SJ,1600017158,90,78.22,15.64,39.2,18.34
1335,Tshikapa,5,CD,1600017158,29,-6.42,20.8,86.95,1.99
1336,Victor Harbor,1,AU,1600017158,90,-35.57,138.62,52.0,8.68
1337,Saint-Philippe,43,RE,1600017159,73,-21.36,55.77,69.8,10.29
1338,Lagoa,4,PT,1600017063,80,39.05,-27.98,72.21,18.25
1339,Richards Bay,0,ZA,1600017023,69,-28.78,32.04,73.15,17.52
1340,Taltal,23,CL,1600017159,60,-25.4,-70.48,62.96,6.53
1341,Vieques,40,PR,1600017159,83,18.43,-65.83,88.0,10.29
1342,Dhule,99,IN,1600017160,83,20.9,74.78,79.02,8.68
1343,El Alto,3,PE,1600017160,66,-4.27,-81.21,70.63,15.39
1344,Flin Flon,75,CA,1600017160,61,54.77,-101.86,46.4,5.82
1345,Hithadhoo,100,MV,1600016367,69,-0.6,73.08,82.33,5.66
1346,Marzuq,67,YE,1600017161,44,14.4,46.47,84.9,5.55
1347,Te Anau,100,NZ,1600016995,91,-45.42,167.72,49.73,7.45
1348,Kaeo,5,NZ,1600017161,3,-35.1,173.78,45.0,1.99
1349,Lobito,60,AO,1600017161,77,-12.35,13.55,71.38,5.61
1350,Taksimo,98,RU,1600017161,82,56.34,114.88,54.73,3.27
1351,Parabel',100,RU,1600017162,93,58.7,81.48,53.2,7.29
1352,Najrān,28,SA,1600016902,15,17.49,44.13,91.4,5.82
1353,Rawson,0,AR,1600016670,38,-43.3,-65.1,55.56,15.79
1354,Mayo,40,US,1600016755,83,38.89,-76.51,79.0,8.05
1355,Chui,95,UY,1600016744,92,-33.7,-53.46,60.35,4.79
1356,Shimoda,11,JP,1600017162,96,34.67,138.95,70.0,8.1
1357,Bilāspur,97,IN,1600017163,77,22.08,82.15,79.83,4.68
1358,Tateyama,75,JP,1600017163,94,34.98,139.87,73.0,9.17
1359,Pechenga,40,RU,1600017163,93,69.53,31.17,46.4,5.82
1360,Millerovo,0,RU,1600017163,30,48.92,40.4,62.92,5.1
1361,Klaksvík,98,FO,1600017163,76,62.23,-6.59,50.0,1.12
1362,Kruisfontein,0,ZA,1600016980,66,-34.0,24.73,57.99,3.0
1363,Hengshui,96,CN,1600017164,77,37.73,115.7,67.98,6.67
1364,Sechura,21,PE,1600017164,56,-5.56,-80.82,74.16,10.02
1365,Requena,84,ES,1600017165,38,39.49,-1.1,80.01,7.0
1366,Antalaha,31,MG,1600016773,78,-14.9,50.28,70.61,10.71
1367,Waingapu,100,ID,1600017165,83,-9.66,120.26,73.4,7.02
1368,Cockburn Town,40,TC,1600016762,70,21.46,-71.14,84.2,5.82
1369,Marsabit,71,KE,1600017165,43,2.33,37.99,74.48,20.76
1370,São Filipe,77,CV,1600016487,78,14.9,-24.5,80.22,14.36
1371,Riyadh,11,SA,1600016648,20,24.69,46.72,95.0,2.24
1372,Halkirk,100,CA,1600017166,75,52.28,-112.15,48.0,7.0
1373,Severo-Kuril'sk,18,RU,1600017166,82,50.68,156.12,48.81,22.1
1374,Narsaq,0,GL,1600016586,31,60.92,-46.05,46.4,3.36
1375,Port Elizabeth,20,ZA,1600017166,72,-33.92,25.57,59.0,17.22
1376,Palmer,75,US,1600017167,56,42.16,-72.33,73.4,6.93
1377,Luan,20,CH,1600017167,57,46.36,6.98,78.8,9.17
1378,Yuanping,100,CN,1600017167,90,38.72,112.76,61.74,1.86
1379,Ust'-Kulom,100,RU,1600017167,94,61.69,53.69,49.86,10.54
1380,Saint-Augustin,100,CA,1600017168,52,51.23,-58.65,59.5,19.82
1381,Korla,55,CN,1600017168,74,41.76,86.15,69.01,5.99
1382,Sokol,47,RU,1600017168,87,59.46,40.12,48.97,10.36
1383,Águeda Municipality,77,PT,1600017168,68,40.58,-8.44,82.99,6.04
1384,Fortuna,0,US,1600016378,98,40.6,-124.16,53.01,1.01
1385,Lüderitz,0,NA,1600017169,66,-26.65,15.16,58.73,25.59
1386,Portland,90,US,1600016477,93,45.52,-122.68,53.6,1.03
1387,Baruun-Urt,0,MN,1600017169,58,46.68,113.28,44.98,8.46
1388,Tautira,20,PF,1600016471,73,-17.73,-149.15,75.2,3.36
1389,Mahébourg,75,MU,1600017170,83,-20.41,57.7,71.6,10.29
1390,Ashtian,0,IR,1600017170,28,34.52,50.0,64.67,10.74
1391,Berekum,82,GH,1600017171,95,7.45,-2.58,75.13,1.9
1392,Deputatsky,97,RU,1600017112,85,69.3,139.9,36.41,2.46
1393,Muroto-misakicho,4,JP,1600017171,78,33.28,134.15,77.2,2.48
1394,Souillac,75,MU,1600017171,83,-20.52,57.52,71.6,10.29
1395,Olafsvik,97,IS,1600016635,66,64.89,-23.71,47.32,10.98
1396,Iqaluit,90,CA,1600017172,80,63.75,-68.51,39.2,3.36
1397,Piranhas,0,BR,1600017172,12,-16.43,-51.82,99.95,7.4
1398,Adoni,100,IN,1600017172,90,15.63,77.28,72.95,15.97
1399,Volot,16,RU,1600017172,73,57.93,30.7,52.43,9.44
1400,Haines Junction,25,CA,1600016748,68,60.75,-137.51,40.62,2.64
1401,Lagdo,20,CM,1600017173,58,9.05,13.73,87.8,9.17
1402,Udachny,18,RU,1600017173,75,66.42,112.4,42.8,4.47
1403,Vardø,75,NO,1600016785,93,70.37,31.11,48.2,9.17
1404,Bubaque,0,GW,1600017173,81,11.28,-15.83,81.64,14.5
1405,San Quintín,0,MX,1600016770,52,30.48,-115.95,78.06,7.78
1406,Jalu,0,LY,1600017174,21,29.03,21.55,93.4,11.07
1407,Qeshm,0,IR,1600017175,46,26.96,56.27,91.4,4.7
1408,Yangi Marg`ilon,0,UZ,1600016799,48,40.43,71.72,66.2,4.7
1409,Severodvinsk,75,RU,1600017175,93,64.56,39.83,51.8,6.71
1410,Gao,42,ML,1600017175,13,16.64,1.64,103.82,10.54
1411,Fairbanks,1,US,1600017122,75,64.84,-147.72,37.0,2.04
1412,Sistranda,75,NO,1600017175,87,63.73,8.83,51.8,19.46
1413,Khuzhir,100,RU,1600017176,82,53.19,107.34,48.09,8.5
1414,Rundu,0,NA,1600017176,18,-17.93,19.77,73.92,2.3
1415,Grindavik,90,IS,1600016790,87,63.84,-22.43,46.4,16.11
1416,Turtas,62,RU,1600017176,94,58.94,69.13,47.32,2.44
1417,Lockport,1,US,1600017169,64,41.59,-88.06,73.0,5.82
1418,Vao,95,NC,1600017177,78,-22.67,167.48,69.3,21.3
1419,Nanortalik,0,GL,1600017177,67,60.14,-45.24,40.01,8.21
1420,Padang,92,ID,1600017035,72,-0.95,100.35,77.9,3.44
1421,Saint-Joseph,22,RE,1600017177,73,-21.37,55.62,69.8,10.29
1422,College,20,US,1600016902,86,64.86,-147.8,37.0,3.36
1423,Muros,92,ES,1600016730,44,42.78,-9.06,82.99,5.99
1424,St. George's,20,GD,1600017138,75,12.06,-61.75,89.6,16.11
1425,Soyo,15,AO,1600017178,77,-6.13,12.37,75.36,10.11
1426,Arraial do Cabo,10,BR,1600017127,61,-22.97,-42.03,86.0,23.04
1427,Miguel Hidalgo,40,MX,1600017179,56,19.42,-99.2,68.0,9.17
1428,Malakal,100,SS,1600017179,96,9.53,31.66,72.45,5.37
1429,Srednekolymsk,0,RU,1600017179,74,67.45,153.68,40.48,2.59
1430,Atasū,98,KZ,1600016981,28,48.68,71.64,65.62,7.09
1431,Daşoguz,0,TM,1600017179,40,41.84,59.97,68.0,6.93
1432,Ponta Delgada,20,PT,1600016848,73,37.73,-25.67,73.4,14.99
1433,Nuuk,0,GL,1600017097,44,64.18,-51.72,39.2,8.05
1434,Waitati,100,NZ,1600017180,75,-45.75,170.57,48.99,15.99
1435,Bandar-e Lengeh,0,IR,1600017180,55,26.56,54.88,91.4,7.07
1436,Kunshan,78,CN,1600017180,88,31.38,120.95,75.99,4.47
1437,Nikolskoye,40,RU,1600017181,66,59.7,30.79,55.99,20.13
1438,Kununurra,40,AU,1600017181,83,-15.77,128.73,73.4,2.24
1439,Vicuña,20,CL,1600017181,76,-30.03,-70.71,57.2,12.75
1440,Priverno,75,IT,1600017181,50,41.47,13.19,84.99,4.0
1441,Kaoma,16,ZM,1600017182,23,-14.78,24.8,72.79,2.86
1442,Otane,90,NZ,1600016955,84,-39.88,176.63,50.0,5.01
1443,Kokoda,84,PG,1600017182,73,-8.88,147.74,71.96,0.72
1444,Ocean City,90,US,1600017182,64,39.28,-74.57,82.0,6.93
1445,Pilar,75,BR,1600017182,58,-9.6,-35.96,82.4,19.46
1446,Fuyu,4,CN,1600017183,92,45.18,124.82,53.55,3.33
1447,Mount Isa,0,AU,1600016789,32,-20.73,139.5,69.8,6.93
1448,Naze,75,JP,1600017183,100,28.37,129.48,77.0,8.05
1449,Antofagasta,20,CL,1600017129,63,-23.65,-70.4,60.8,13.87
1450,Dunedin,100,NZ,1600016779,81,-45.87,170.5,50.0,4.0
1451,Peniche,92,PT,1600016802,85,39.36,-9.38,75.0,11.99
1452,Westport,20,US,1600017184,69,41.14,-73.36,75.99,9.17
1453,Mionica,11,BA,1600017184,50,44.87,18.46,82.99,1.12
1454,Shelburne,1,CA,1600017075,60,44.08,-80.2,73.4,19.46
1455,Kanhangad,75,IN,1600017185,100,12.31,75.11,75.2,2.24
1456,Stonewall,20,CA,1600017185,62,50.13,-97.33,55.4,16.11
1457,Billings Metropolitan Area,20,US,1600016916,58,45.78,-108.5,63.0,8.05
1458,Almuñécar,100,ES,1600017185,63,36.73,-3.69,82.99,5.35
1459,Aban,53,RU,1600017186,92,56.67,96.06,45.25,4.9
1460,Yelan’-Kolenovskiy,0,RU,1600017186,37,51.16,41.15,61.48,6.38
1461,Englehart,90,CA,1600017186,82,47.82,-79.87,68.0,21.92
1462,Lufilufi,75,WS,1600017186,100,-13.87,-171.6,75.2,21.21
1463,Moerai,9,PF,1600017187,87,-22.43,-151.33,75.25,17.52
1464,Imeni Babushkina,93,RU,1600017187,92,59.76,43.13,49.73,9.42
1465,Saint-François,0,FR,1600016796,27,46.42,3.91,87.8,6.93
1466,Bilibino,88,RU,1600016883,83,68.05,166.44,36.46,6.33
1467,Kabanjahe,100,ID,1600017187,96,3.1,98.49,64.76,1.97
1468,Amnat Charoen,40,TH,1600017188,76,15.86,104.63,79.57,1.48
1469,Kumano,75,JP,1600017188,73,34.34,132.59,69.8,6.93
1470,Otjiwarongo,0,NA,1600017188,20,-20.46,16.65,70.2,5.61
1471,Tura,100,IN,1600017188,97,25.52,90.22,74.8,5.84
1472,Asău,36,RO,1600016826,79,46.43,26.4,66.0,4.12
1473,Vila Velha,20,BR,1600016372,58,-20.33,-40.29,82.4,17.22
1474,Palana,100,RU,1600017189,89,59.12,159.97,42.76,16.93
1475,Brookhaven,27,US,1600017189,76,31.58,-90.44,88.0,6.87
1476,Itarema,16,BR,1600016822,52,-2.92,-39.92,85.48,22.44
1477,Grand-Santi,1,GF,1600016765,30,4.25,-54.38,98.44,4.52
1478,Norman Wells,75,CA,1600017190,77,65.28,-126.83,32.0,2.24
1479,Provideniya,100,RU,1600017190,92,64.38,-173.3,43.47,16.91
1480,Hofn,90,IS,1600016585,66,64.25,-15.21,48.2,12.75
1481,Aksarka,54,RU,1600017190,80,66.56,67.8,45.07,6.73
1482,Codrington,14,AU,1600016363,92,-38.27,141.97,47.89,8.57
1483,Chipinge,47,ZW,1600017191,63,-20.19,32.62,62.6,5.46
1484,Camaná,56,PE,1600017191,63,-16.62,-72.71,65.25,8.9
1485,Hambantota,100,LK,1600016845,77,6.12,81.12,80.46,15.88
1486,Villa Bruzual,50,VE,1600017191,66,9.33,-69.12,87.67,5.79
1487,Afuá,13,BR,1600017192,55,-0.16,-50.39,91.49,6.02
1488,Houffalize,47,BE,1600017192,52,50.13,5.79,78.01,1.01
1489,São José do Belmonte,54,BR,1600017192,17,-7.86,-38.76,92.89,12.68
1490,Siddipet,100,IN,1600017193,89,18.1,78.85,75.76,8.37
1491,Buraidah,0,SA,1600017193,16,26.33,43.98,98.6,6.93
1492,Puri,20,IN,1600017193,89,19.8,85.85,84.2,4.7
1493,Jumla,98,NP,1600016886,68,29.27,82.18,61.72,1.21
1494,Tambun,20,ID,1600017193,78,-6.26,107.07,82.99,3.36
1495,Goderich,49,CA,1600017087,82,43.75,-81.72,71.01,21.27
1496,Mbandaka,100,CD,1600017194,91,0.05,18.26,74.32,1.7
1497,Xam Nua,100,LA,1600017194,93,20.42,104.04,68.14,1.63
1498,Molina,20,CL,1600017194,71,-35.12,-71.28,62.01,10.29
1499,Astoria,90,US,1600016931,93,46.19,-123.83,55.4,3.2
1500,Rodrigues Alves,20,BR,1600017195,56,-7.74,-72.65,93.2,4.7
1501,Tegul'det,0,RU,1600017195,84,57.31,88.17,45.59,3.33
1502,Harper,59,LR,1600016769,86,4.38,-7.72,77.7,13.27
1503,Manaus,40,BR,1600016971,62,-3.1,-60.02,93.2,4.7
1504,Ishigaki,76,JP,1600017195,73,24.34,124.16,83.12,7.56
1505,Takhtamygda,92,RU,1600017196,93,54.1,123.57,52.39,2.8
1506,Gravdal,75,NO,1600017196,87,68.12,13.5,50.0,5.82
1507,Kautokeino,90,NO,1600017081,77,69.01,23.04,43.68,5.06
1508,Shīeli,73,KZ,1600017196,25,44.17,66.75,70.16,6.91
1509,Stykkisholmur,97,IS,1600017196,65,65.08,-22.73,47.34,11.23
1510,Nyrob,100,RU,1600017197,93,60.73,56.72,49.55,8.63
1511,Kholodnyy,1,RU,1600017197,89,62.72,147.95,33.06,1.86
1512,Pevek,27,RU,1600017197,83,69.7,170.31,41.85,9.89
1513,Ixtapa,5,MX,1600017197,74,20.7,-105.2,87.01,6.93
1514,Moree,0,AU,1600017198,66,-29.47,149.85,53.6,9.17
1515,Ugoofaaru,100,MV,1600016839,78,5.67,73.0,82.69,10.83
1516,Ves'yegonsk,12,RU,1600017198,74,58.66,37.26,51.55,9.93
1517,Blackwater,0,AU,1600017198,88,-23.58,148.88,60.12,8.19
1518,Teahupoo,20,PF,1600017198,73,-17.83,-149.27,75.2,3.36
1519,Hamilton,40,US,1600016731,74,39.18,-84.53,81.0,5.82
1520,La Ferté-Bernard,0,FR,1600017199,26,48.19,0.65,84.2,5.82
1521,Simao,100,CN,1600017199,94,22.79,100.97,65.62,1.97
1522,Praia,20,CV,1600016576,75,14.92,-23.51,81.86,12.33
1523,Mossamedes,45,AO,1600017199,83,-15.2,12.15,64.38,10.87
1524,Gemeente Wageningen,34,NL,1600017200,64,51.97,5.67,75.0,8.05
1525,Lorengau,66,PG,1600017200,82,-2.02,147.27,81.88,12.75
1526,Storforshei,75,NO,1600017200,87,66.4,14.52,48.2,13.87
1527,Inhambane,0,MZ,1600017200,76,-23.86,35.38,70.7,9.13
1528,Lata,66,PT,1600016644,50,40.16,-8.33,82.0,8.01
1529,Iquique,20,CL,1600017055,59,-20.22,-70.14,64.4,12.75
1530,Ongandjera,2,NA,1600017201,17,-17.88,15.07,75.92,5.64
1531,Manggar,100,ID,1600017201,81,-2.88,108.27,79.97,6.82
1532,Swan Hill,0,AU,1600016749,94,-35.34,143.55,43.47,5.75
1533,Guerrero Negro,0,MX,1600017201,45,27.98,-114.06,81.25,7.2
1534,Kasongo-Lunda,59,CD,1600017202,31,-6.47,16.82,88.18,0.78
1535,Port Hedland,68,AU,1600017069,69,-20.32,118.57,75.2,8.05
1536,Cayenne,40,GF,1600016714,52,4.93,-52.33,91.4,13.87
1537,Nishihara,75,JP,1600017073,88,26.18,127.76,80.6,5.82
1538,Montepuez,79,MZ,1600017202,49,-13.13,39.0,79.52,11.54
1539,Acará,21,BR,1600017203,34,-1.96,-48.2,98.08,5.28
1540,Louiseville,90,CA,1600016998,77,46.26,-72.94,62.01,5.82
1541,Prokop'yevsk,0,RU,1600017203,72,53.91,86.72,44.8,2.35
1542,Tezu,93,IN,1600017203,80,27.92,96.17,75.6,1.9
1543,Kakching,100,IN,1600017203,92,24.48,93.98,71.22,1.32
1544,Port Hueneme,75,US,1600016863,88,34.15,-119.2,62.6,5.91
1545,Juradó,81,CO,1600017204,72,7.11,-77.76,83.05,6.35
1546,Road Town,40,VG,1600017204,74,18.42,-64.62,87.8,8.05
1547,Ambon City,96,ID,1600017204,81,-3.7,128.18,78.22,12.35
1548,Manaíra,70,BR,1600017204,20,-7.71,-38.15,89.71,9.86
1549,Avenal,0,US,1600017033,39,36.0,-120.13,82.0,3.47
1550,Maltahöhe,0,NA,1600017205,21,-24.83,16.98,70.3,15.88
1551,Assiut,0,EG,1600017205,32,27.18,31.18,93.2,13.87
1552,George Town,20,MY,1600017205,83,5.41,100.34,80.6,2.98
1553,Sakakah,20,SA,1600016945,12,29.97,40.21,100.4,13.73
1554,Takoradze,27,GH,1600016718,83,4.88,-1.76,78.21,10.31
1555,Krasnoshchekovo,12,RU,1600017206,60,51.67,82.73,51.67,4.32
1556,Smithers,90,CA,1600017206,100,54.78,-127.17,48.2,3.44
1557,Businga,41,CD,1600017206,82,3.33,20.88,75.88,1.61
1558,Tarko-Sale,49,RU,1600016803,89,64.92,77.78,46.0,10.0
1559,Baoshan,100,CN,1600017172,93,46.56,131.42,55.99,2.95
1560,‘Āhuimanu,20,US,1600016644,69,21.44,-157.84,77.0,9.17
1561,Arlit,4,NE,1600017207,7,18.74,7.39,106.07,19.06
1562,Salalah,40,OM,1600016547,83,17.02,54.09,82.4,6.93
1563,Puerto Escondido,75,MX,1600017087,65,15.85,-97.07,82.4,2.33
1564,Omsukchan,97,RU,1600017207,81,62.53,155.8,39.88,6.58
1565,Krasnosel'kup,100,RU,1600017208,91,65.7,82.47,52.65,9.8
1566,Nizwá,10,OM,1600017208,24,22.93,57.53,91.31,8.59
1567,Goundam,38,ML,1600017208,16,16.41,-3.67,104.31,4.99
1568,Roald,75,NO,1600017209,71,62.58,6.13,53.6,17.22
1569,Havelock,90,US,1600017209,78,34.88,-76.9,84.0,10.29
1570,Sungai Penuh,99,ID,1600017209,95,-2.08,101.38,65.3,1.43
1571,La Rioja,16,ES,1600017209,22,42.25,-2.5,91.4,12.75
1572,Manukan,83,PH,1600017209,81,8.53,123.1,79.63,0.72
1573,Hasaki,75,JP,1600017152,100,35.73,140.83,70.0,3.36
1574,Sisimiut,0,GL,1600017210,73,66.94,-53.67,37.36,1.95
1575,Jasper,1,US,1600017210,68,37.2,-94.35,73.99,4.7
1576,Semīrom,39,IR,1600017210,36,31.42,51.57,57.11,8.37
1577,Mahbūbnagar,100,IN,1600017211,91,16.73,77.98,74.44,7.72
1578,Pangnirtung,20,CA,1600017211,65,66.15,-65.71,41.0,5.82
1579,Kysyl-Syr,7,RU,1600017211,95,63.9,122.76,41.4,6.44
1580,Semnan,14,IR,1600017211,45,35.57,53.4,70.97,10.07
1581,Zaysan,11,KZ,1600017211,39,47.47,84.87,54.01,7.23
1582,Vernon,68,CA,1600016927,53,50.26,-119.27,63.0,1.45
1583,Karatsu,22,JP,1600017212,57,33.44,129.97,70.0,3.0
1584,San Andrés,75,CO,1600017212,94,12.58,-81.7,78.8,6.93
1585,Waitakere,97,NZ,1600017212,66,-36.92,174.66,57.0,17.22
1586,Coquimbo,20,CL,1600016873,76,-29.95,-71.34,57.2,12.75
1587,Puro,100,PH,1600017213,80,12.48,123.38,81.19,5.59
1588,Skjervøy,36,NO,1600017213,81,70.03,20.97,50.0,5.82
1589,Uxbridge,94,US,1600017213,63,42.08,-71.63,73.99,8.25
1590,Yokadouma,94,CM,1600017213,80,3.52,15.05,76.03,1.88
1591,Punta Alta,0,AR,1600017214,35,-38.88,-62.07,58.69,16.64
1592,Sola,100,VU,1600017214,87,-13.88,167.55,78.31,23.24
1593,Ubari,0,LY,1600017214,18,26.59,12.78,93.94,10.71
1594,Smolenskaya,28,RU,1600017214,50,44.79,38.8,79.0,6.71
1595,Grand Gaube,88,MU,1600017214,82,-20.01,57.66,69.01,1.99
1596,Acapulco de Juárez,40,MX,1600017215,70,16.86,-99.89,86.0,5.82
1597,Morvi,98,IN,1600017215,10,22.82,70.83,84.0,8.86
1598,Povenets,100,RU,1600017215,82,62.85,34.83,51.6,19.84
1599,Tuyen Quang,100,VN,1600017118,94,21.82,105.22,78.01,1.14
1600,Brønnøysund,75,NO,1600017215,87,65.46,12.2,50.0,20.8
1601,Montabaur,88,DE,1600017216,50,50.43,7.83,75.0,1.3
1602,Havre-St-Pierre,90,CA,1600017216,76,50.23,-63.6,57.2,4.7
1603,Sibu,40,MY,1600017216,94,2.3,111.82,77.0,2.24
1604,Denpasar,20,ID,1600017216,88,-8.65,115.22,78.8,5.82
1605,Vic,0,ES,1600017217,53,41.93,2.25,84.0,1.01
1606,Kavaratti,100,IN,1600017217,80,10.57,72.64,81.86,15.66
1607,High Prairie,100,CA,1600017217,67,55.43,-116.49,47.8,5.75
1608,Urusha,95,RU,1600017217,95,54.05,122.9,50.59,2.98
1609,North Bend,90,US,1600017218,100,43.41,-124.22,54.0,3.6
1610,Katobu,99,ID,1600017218,90,-4.94,122.53,71.82,2.3
1611,Yamada,100,JP,1600017218,90,39.47,141.95,64.17,9.62
1612,Gerāsh,20,IR,1600017218,16,27.67,54.14,93.2,6.93
1613,Broome,75,US,1600017219,68,42.25,-75.83,71.01,13.87
1614,Vredendal,2,ZA,1600017219,61,-31.67,18.5,56.1,10.22
1615,Emerald,0,AU,1600016956,72,-23.53,148.17,64.4,8.05
1616,Sorong,94,ID,1600017219,88,-0.88,131.25,78.64,18.01
1617,Price,1,US,1600017219,24,39.6,-110.81,66.2,5.95
1618,Kommunar,40,RU,1600017220,66,59.62,30.39,55.99,20.13
1619,Guisa,40,CU,1600017220,52,20.25,-76.54,89.6,10.29
1620,Canavieiras,8,BR,1600017220,73,-15.68,-38.95,77.52,10.0
1621,Hearst,100,CA,1600017221,72,49.68,-83.67,50.95,12.46
1622,Oktyabr'skiy,74,RU,1600017221,78,54.48,53.47,51.12,6.31
1623,Valparaíso,0,CL,1600017221,45,-33.04,-71.63,66.2,10.29
1624,Copiapó,90,CL,1600017073,82,-27.37,-70.33,55.4,1.12
1625,Seoul,1,KR,1600017066,93,37.57,126.98,66.2,3.51
1626,Atar,3,MR,1600017222,11,20.52,-13.05,107.4,11.05
1627,Ewo,89,CG,1600017095,77,-0.87,14.82,78.76,3.74
1628,Shache,0,CN,1600017222,25,38.42,77.24,68.23,7.23
1629,Vale,0,GE,1600017222,83,41.62,42.87,77.0,9.17
1630,Smyshlyayevka,0,RU,1600017223,62,53.24,50.39,57.2,6.71
1631,Coolum Beach,7,AU,1600017223,97,-26.53,153.1,57.99,2.48
1632,Islamkot,60,PK,1600017223,51,24.7,70.18,92.57,8.39
1633,Sumbawanga,44,TZ,1600017223,51,-7.97,31.62,63.88,3.62
1634,Fallon,1,US,1600017223,16,39.47,-118.78,75.99,4.7
1635,Chu,0,KZ,1600017224,39,43.6,73.76,65.19,8.37
1636,Payson,1,US,1600017224,34,40.04,-111.73,75.99,5.82
1637,Yumen,0,CN,1600017224,40,40.28,97.2,50.99,5.84
1638,Merrill,90,US,1600017106,82,45.18,-89.68,60.8,9.17
1639,Khovd,0,MN,1600017226,50,48.01,91.64,46.53,1.3
1640,Barra de Tecoanapa,54,MX,1600016899,63,16.52,-98.75,86.86,6.91
1641,Nantucket,1,US,1600017226,68,41.28,-70.1,69.8,16.11
1642,Necochea,88,AR,1600017226,65,-38.55,-58.74,54.0,11.01
1643,Kosh-Agach,0,RU,1600017227,74,50.0,88.67,36.23,1.59
1644,Saýat,0,TM,1600017227,35,38.78,63.88,71.6,6.93
1645,Santa Cruz de la Sierra,28,BO,1600016882,21,-17.8,-63.17,100.69,17.74
1646,Abhā,20,SA,1600017227,60,18.22,42.51,77.0,5.82
1647,Tigil',100,RU,1600017227,85,57.8,158.67,43.32,10.49
1648,Altay,7,CN,1600017054,44,47.87,88.12,50.2,4.47
1649,Trogir,0,HR,1600017228,29,43.51,16.25,87.8,16.11
1650,Northam,0,GB,1600016877,86,51.03,-4.22,70.0,1.99
1651,Kenai,1,US,1600017228,92,60.55,-151.26,30.2,3.36
1652,Provincia di Taranto,0,IT,1600017229,40,40.62,17.25,87.8,16.11
1653,Sur,62,OM,1600017229,66,22.57,59.53,81.45,8.43
1654,Chokurdakh,57,RU,1600017229,72,70.63,147.92,43.21,3.4
1655,Lavrentiya,100,RU,1600016840,92,65.58,-171.0,42.98,8.16
1656,Bengkulu,57,ID,1600017019,89,-3.8,102.27,76.35,6.91
1657,Kolyvan',70,RU,1600017230,87,55.31,82.74,48.2,2.24
1658,Itoman,75,JP,1600017230,88,26.12,127.67,80.6,5.82
1659,Lake City,40,US,1600017230,83,30.19,-82.64,87.01,6.93
1660,Brae,75,GB,1600017230,93,60.4,-1.35,51.8,1.12
1661,Kayerkan,40,RU,1600017230,82,69.35,87.76,55.4,15.66
1662,Vostok,98,RU,1600017231,69,46.49,135.88,42.39,3.62
1663,Poquoson,1,US,1600017144,83,37.12,-76.35,82.0,8.05
1664,Ulaanbaatar,40,MN,1600016891,80,47.91,106.88,39.2,6.71
1665,Amalāpuram,92,IN,1600017231,94,16.58,82.02,78.55,1.97
1666,Huarmey,40,PE,1600017232,66,-10.07,-78.15,67.55,11.32
1667,Beyneu,0,KZ,1600017232,36,45.32,55.2,73.53,12.33
1668,Paine,4,CL,1600017232,54,-33.82,-70.75,64.4,11.41
1669,San Matías,0,BO,1600017066,9,-16.37,-58.4,108.81,8.61
1670,Akureyri,75,IS,1600017232,81,65.68,-18.09,44.6,5.82
1671,Cabo San Lucas,20,MX,1600017215,74,22.89,-109.91,87.01,11.41
1672,Tulnici,16,RO,1600017233,47,45.92,26.67,77.0,4.7
1673,Nizhniy Baskunchak,0,RU,1600017233,36,48.22,46.83,64.63,5.39
1674,Abalak,55,RU,1600017233,95,58.13,68.59,48.42,2.55
1675,Dukat,98,RU,1600017234,84,62.55,155.55,37.51,5.68
1676,Hong Kong,93,HK,1600017114,95,22.29,114.16,82.99,4.0
1677,Odda,100,NO,1600017234,93,60.07,6.55,53.01,4.41
1678,Myatlevo,40,RU,1600017234,87,54.9,35.68,60.8,8.95
1679,Titay,100,PH,1600017234,86,7.81,122.53,76.39,1.74
1680,Miramar,40,US,1600017235,74,25.99,-80.23,88.0,12.75
1681,Inverell,18,AU,1600017235,89,-29.78,151.12,48.99,3.11
1682,Nauta,0,PE,1600017235,35,-4.51,-73.58,98.37,3.89
1683,Nuquí,75,CO,1600017235,78,5.71,-77.27,82.4,3.36
1684,Dingle,100,PH,1600017236,91,11.0,122.67,77.05,4.74
1685,Contamana,56,PE,1600017236,39,-7.33,-75.02,96.76,2.17
1686,Saldanha,89,ZA,1600017236,63,-33.01,17.94,60.8,11.41
1687,Lerwick,75,GB,1600017236,93,60.15,-1.15,51.8,1.12
1688,Rockland,89,US,1600017236,75,41.17,-74.05,75.0,9.57
1689,Mareeba,75,AU,1600016653,88,-17.0,145.43,68.0,9.17
1690,Grão Mogol,0,BR,1600017237,26,-16.56,-42.89,84.34,9.89
1691,Labuhan,98,ID,1600017237,75,-6.88,112.21,77.72,6.82
1692,Saint Anthony,1,US,1600017083,72,45.02,-93.22,66.99,5.79
1693,Yakeshi,52,CN,1600017238,91,49.28,120.73,49.48,7.61
1694,Cascais,20,PT,1600017238,78,38.7,-9.42,73.4,12.75
1695,Celestún,22,MX,1600017238,70,20.87,-90.4,85.41,9.8
1696,Ružomberok,95,SK,1600017239,57,49.07,19.31,75.2,1.12
1697,Bowen,40,AU,1600017065,93,-20.02,148.23,62.6,6.93
1698,Broken Hill,0,AU,1600017239,58,-31.95,141.43,53.6,18.34
1699,Nur-Sultan,100,KZ,1600017239,36,51.18,71.45,64.4,8.95
1700,Kuching,40,MY,1600017239,100,1.55,110.33,75.2,4.7
1701,Mahibadhoo,100,MV,1600017240,77,3.78,72.97,82.62,9.93
1702,Ibrā’,32,OM,1600017240,30,22.69,58.53,86.72,5.82
1703,Molokovo,18,RU,1600017240,77,58.17,36.76,50.83,10.8
1704,Bandarbeyla,86,SO,1600017240,74,9.49,50.81,79.81,29.48
1705,Lakewood,0,US,1600017241,29,39.7,-105.08,79.0,1.01
1706,Manokwari,100,ID,1600016877,78,-0.87,134.08,79.2,4.18
1707,Herat Province,0,AF,1600017241,20,34.5,62.0,73.4,12.75
1708,Imbituba,53,BR,1600016853,57,-28.24,-48.67,80.6,14.99
1709,Yeppoon,90,AU,1600017242,82,-23.13,150.73,66.2,6.93
1710,Walvis Bay,2,NA,1600016798,56,-22.96,14.51,68.0,18.34
1711,Sernovodskoye,20,RU,1600017242,73,43.32,45.16,71.6,13.42
1712,Aykhal,31,RU,1600017242,75,66.0,111.5,42.8,4.47
1713,Lar,100,IN,1600017242,79,26.2,83.97,84.31,1.19
1714,Mitú,8,CO,1600017204,45,1.2,-70.17,93.02,4.12
1715,Puerto del Rosario,20,ES,1600017243,73,28.5,-13.86,77.0,5.82
1716,Anadyr,75,RU,1600017244,93,64.75,177.48,44.6,24.61
1717,Lundazi,71,ZM,1600017244,43,-12.29,33.18,71.1,9.89
1718,Paamiut,0,GL,1600016725,69,61.99,-49.67,37.02,6.49
1719,Port Macquarie,39,AU,1600017244,97,-31.43,152.92,53.01,4.5
1720,Chapayevka,0,UA,1600017244,35,47.47,36.35,69.26,3.76
1721,Whyalla,75,AU,1600017245,87,-33.03,137.58,50.0,5.82
1722,Evansville,40,US,1600016835,61,37.97,-87.56,81.0,4.7
